{"type":"FeatureCollection","features":[{"type":"Feature","geometry":{"type":"Point","coordinates":[-92.1718036230305,46.7371103567027]},"properties":{"name":"Grand Ave & 59 AW","altitudeMode":"clampToGround","stop_lat":46.737127,"stop_timez":null,"stop_code":"Feb-69","location_t":0,"stop_lon":-92.171819,"FID_route_3_Buffer":1,"parent_sta":null,"stop_url":null,"zone_id":null,"stop_id":"Feb-69","FID_GTFS_Stops_02212017":978,"stop_desc":null,"stop_name":"Grand Ave & 59 AW","wheelchair":0,"Field_1":"Grand Ave & 59 AW"}},{"type":"Feature","geometry":{"type":"Point","coordinates":[-92.1718676227069,46.7375883560861]},"properties":{"name":"59 AW & Bristol St","altitudeMode":"clampToGround","stop_lat":46.737605,"stop_timez":null,"stop_code":"Feb-13","location_t":0,"stop_lon":-92.171883,"FID_route_3_Buffer":1,"parent_sta":null,"stop_url":null,"zone_id":null,"stop_id":"Feb-13","FID_GTFS_Stops_02212017":1437,"stop_desc":null,"stop_name":"59 AW & Bristol St","wheelchair":0,"Field_1":"59 AW & Bristol St"}},{"type":"Feature","geometry":{"type":"Point","coordinates":[-92.1721026220731,46.7376613565265]},"properties":{"name":"59 AW & Bristol St","altitudeMode":"clampToGround","stop_lat":46.737678,"stop_timez":null,"stop_code":"Jan-13","location_t":0,"stop_lon":-92.172118,"FID_route_3_Buffer":1,"parent_sta":null,"stop_url":null,"zone_id":null,"stop_id":"Jan-13","FID_GTFS_Stops_02212017":702,"stop_desc":null,"stop_name":"59 AW & Bristol St","wheelchair":0,"Field_1":"59 AW & Bristol St"}},{"type":"Feature","geometry":{"type":"Point","coordinates":[-92.1708116233296,46.7377863559447]},"properties":{"name":"Grand Ave & 58 AW","altitudeMode":"clampToGround","stop_lat":46.737803,"stop_timez":null,"stop_code":"Jan-64","location_t":0,"stop_lon":-92.170827,"FID_route_3_Buffer":1,"parent_sta":null,"stop_url":null,"zone_id":null,"stop_id":"Jan-64","FID_GTFS_Stops_02212017":214,"stop_desc":null,"stop_name":"Grand Ave & 58 AW","wheelchair":0,"Field_1":"Grand Ave & 58 AW"}},{"type":"Feature","geometry":{"type":"Point","coordinates":[-92.1703936225845,46.7381373561078]},"properties":{"name":"Grand Ave & 58 AW","altitudeMode":"clampToGround","stop_lat":46.738154,"stop_timez":null,"stop_code":"Feb-64","location_t":0,"stop_lon":-92.170409,"FID_route_3_Buffer":1,"parent_sta":null,"stop_url":null,"zone_id":null,"stop_id":"Feb-64","FID_GTFS_Stops_02212017":974,"stop_desc":null,"stop_name":"Grand Ave & 58 AW","wheelchair":0,"Field_1":"Grand Ave & 58 AW"}},{"type":"Feature","geometry":{"type":"Point","coordinates":[-92.2158205957441,46.7389303619478]},"properties":{"name":"Anchor St & Arbutus Dr","altitudeMode":"clampToGround","stop_lat":46.738947,"stop_timez":null,"stop_code":"Feb-35","location_t":0,"stop_lon":-92.215836,"FID_route_3_Buffer":1,"parent_sta":null,"stop_url":null,"zone_id":null,"stop_id":"Feb-35","FID_GTFS_Stops_02212017":1079,"stop_desc":null,"stop_name":"Anchor St & Arbutus Dr","wheelchair":0,"Field_1":"Anchor St & Arbutus Dr"}},{"type":"Feature","geometry":{"type":"Point","coordinates":[-92.2169415955566,46.7389583621917]},"properties":{"name":"Anchor St & Boundary Ave","altitudeMode":"clampToGround","stop_lat":46.738975,"stop_timez":null,"stop_code":"Feb-13","location_t":0,"stop_lon":-92.216957,"FID_route_3_Buffer":1,"parent_sta":null,"stop_url":null,"zone_id":null,"stop_id":"Feb-13","FID_GTFS_Stops_02212017":1465,"stop_desc":null,"stop_name":"Anchor St & Boundary Ave","wheelchair":0,"Field_1":"Anchor St & Boundary Ave"}},{"type":"Feature","geometry":{"type":"Point","coordinates":[-92.1718526221115,46.7386813563326]},"properties":{"name":"59 AW & Ramsey St","altitudeMode":"clampToGround","stop_lat":46.738698,"stop_timez":null,"stop_code":"Feb-73","location_t":0,"stop_lon":-92.171868,"FID_route_3_Buffer":1,"parent_sta":null,"stop_url":null,"zone_id":null,"stop_id":"Feb-73","FID_GTFS_Stops_02212017":981,"stop_desc":null,"stop_name":"59 AW & Ramsey St","wheelchair":0,"Field_1":"59 AW & Ramsey St"}},{"type":"Feature","geometry":{"type":"Point","coordinates":[-92.1694276232221,46.7387683556126]},"properties":{"name":"Grand Ave & 57 AW","altitudeMode":"clampToGround","stop_lat":46.738785,"stop_timez":null,"stop_code":"Jan-54","location_t":0,"stop_lon":-92.169443,"FID_route_3_Buffer":1,"parent_sta":null,"stop_url":null,"zone_id":null,"stop_id":"Jan-54","FID_GTFS_Stops_02212017":207,"stop_desc":null,"stop_name":"Grand Ave & 57 AW","wheelchair":0,"Field_1":"Grand Ave & 57 AW"}},{"type":"Feature","geometry":{"type":"Point","coordinates":[-92.2112835988138,46.7391193617215]},"properties":{"name":"Foxtail Ave & Anchor St","altitudeMode":"clampToGround","stop_lat":46.739136,"stop_timez":null,"stop_code":"Feb-01","location_t":0,"stop_lon":-92.211299,"FID_route_3_Buffer":1,"parent_sta":null,"stop_url":null,"zone_id":null,"stop_id":"Feb-01","FID_GTFS_Stops_02212017":1483,"stop_desc":null,"stop_name":"Foxtail Ave & Anchor St","wheelchair":0,"Field_1":"Foxtail Ave & Anchor St"}},{"type":"Feature","geometry":{"type":"Point","coordinates":[-92.1720986222889,46.7393763560941]},"properties":{"name":"59 AW & Greene St","altitudeMode":"clampToGround","stop_lat":46.739393,"stop_timez":null,"stop_code":"Jan-70","location_t":0,"stop_lon":-92.172114,"FID_route_3_Buffer":1,"parent_sta":null,"stop_url":null,"zone_id":null,"stop_id":"Jan-70","FID_GTFS_Stops_02212017":220,"stop_desc":null,"stop_name":"59 AW & Greene St","wheelchair":0,"Field_1":"59 AW & Greene St"}},{"type":"Feature","geometry":{"type":"Point","coordinates":[-92.1677306236278,46.7399853549897]},"properties":{"name":"Grand Ave & 56 AW","altitudeMode":"clampToGround","stop_lat":46.740002,"stop_timez":null,"stop_code":"Jan-48","location_t":0,"stop_lon":-92.167746,"FID_route_3_Buffer":1,"parent_sta":null,"stop_url":null,"zone_id":null,"stop_id":"Jan-48","FID_GTFS_Stops_02212017":202,"stop_desc":null,"stop_name":"Grand Ave & 56 AW","wheelchair":0,"Field_1":"Grand Ave & 56 AW"}},{"type":"Feature","geometry":{"type":"Point","coordinates":[-92.1718496221774,46.7400533554315]},"properties":{"name":"59 AW & Wadena St","altitudeMode":"clampToGround","stop_lat":46.74007,"stop_timez":null,"stop_code":"Feb-74","location_t":0,"stop_lon":-92.171865,"FID_route_3_Buffer":1,"parent_sta":null,"stop_url":null,"zone_id":null,"stop_id":"Feb-74","FID_GTFS_Stops_02212017":982,"stop_desc":null,"stop_name":"59 AW & Wadena St","wheelchair":0,"Field_1":"59 AW & Wadena St"}},{"type":"Feature","geometry":{"type":"Point","coordinates":[-92.1677036243604,46.7400403553957]},"properties":{"name":"Grand Ave & 56 AW","altitudeMode":"clampToGround","stop_lat":46.740057,"stop_timez":null,"stop_code":"Feb-48","location_t":0,"stop_lon":-92.167719,"FID_route_3_Buffer":1,"parent_sta":null,"stop_url":null,"zone_id":null,"stop_id":"Feb-48","FID_GTFS_Stops_02212017":964,"stop_desc":null,"stop_name":"Grand Ave & 56 AW","wheelchair":0,"Field_1":"Grand Ave & 56 AW"}},{"type":"Feature","geometry":{"type":"Point","coordinates":[-92.2112815976811,46.7407053612669]},"properties":{"name":"Foxtail Ave & Nutmeg Lane","altitudeMode":"clampToGround","stop_lat":46.740722,"stop_timez":null,"stop_code":"Feb-02","location_t":0,"stop_lon":-92.211297,"FID_route_3_Buffer":1,"parent_sta":null,"stop_url":null,"zone_id":null,"stop_id":"Feb-02","FID_GTFS_Stops_02212017":1484,"stop_desc":null,"stop_name":"Foxtail Ave & Nutmeg Lane","wheelchair":0,"Field_1":"Foxtail Ave & Nutmeg Lane"}},{"type":"Feature","geometry":{"type":"Point","coordinates":[-92.16706462426,46.7404543546646]},"properties":{"name":"Grand Ave & Central Ave","altitudeMode":"clampToGround","stop_lat":46.740471,"stop_timez":null,"stop_code":"Jan-57","location_t":0,"stop_lon":-92.16708,"FID_route_3_Buffer":1,"parent_sta":null,"stop_url":null,"zone_id":null,"stop_id":"Jan-57","FID_GTFS_Stops_02212017":390,"stop_desc":null,"stop_name":"Grand Ave & Central Ave","wheelchair":0,"Field_1":"Grand Ave & Central Ave"}},{"type":"Feature","geometry":{"type":"Point","coordinates":[-92.2171725951909,46.7408913622562]},"properties":{"name":"Boundary Ave & Grove St","altitudeMode":"clampToGround","stop_lat":46.740908,"stop_timez":null,"stop_code":"Feb-70","location_t":0,"stop_lon":-92.217188,"FID_route_3_Buffer":1,"parent_sta":null,"stop_url":null,"zone_id":null,"stop_id":"Feb-70","FID_GTFS_Stops_02212017":1200,"stop_desc":null,"stop_name":"Boundary Ave & Grove St","wheelchair":0,"Field_1":"Boundary Ave & Grove St"}},{"type":"Feature","geometry":{"type":"Point","coordinates":[-92.2132755969306,46.7408883617093]},"properties":{"name":"Arbutus Dr & Dewberry Lan","altitudeMode":"clampToGround","stop_lat":46.740905,"stop_timez":null,"stop_code":"Feb-04","location_t":0,"stop_lon":-92.213291,"FID_route_3_Buffer":1,"parent_sta":null,"stop_url":null,"zone_id":null,"stop_id":"Feb-04","FID_GTFS_Stops_02212017":1486,"stop_desc":null,"stop_name":"Arbutus Dr & Dewberry Lan","wheelchair":0,"Field_1":"Arbutus Dr & Dewberry Lan"}},{"type":"Feature","geometry":{"type":"Point","coordinates":[-92.1669466249081,46.7405803551394]},"properties":{"name":"Grand Ave & Central Ave","altitudeMode":"clampToGround","stop_lat":46.740597,"stop_timez":null,"stop_code":"Feb-57","location_t":0,"stop_lon":-92.166962,"FID_route_3_Buffer":1,"parent_sta":null,"stop_url":null,"zone_id":null,"stop_id":"Feb-57","FID_GTFS_Stops_02212017":1138,"stop_desc":null,"stop_name":"Grand Ave & Central Ave","wheelchair":0,"Field_1":"Grand Ave & Central Ave"}},{"type":"Feature","geometry":{"type":"Point","coordinates":[-92.217094595143,46.7409723615904]},"properties":{"name":"Boundary Ave & Grove St","altitudeMode":"clampToGround","stop_lat":46.740989,"stop_timez":null,"stop_code":"Feb-14","location_t":0,"stop_lon":-92.21711,"FID_route_3_Buffer":1,"parent_sta":null,"stop_url":null,"zone_id":null,"stop_id":"Feb-14","FID_GTFS_Stops_02212017":1466,"stop_desc":null,"stop_name":"Boundary Ave & Grove St","wheelchair":0,"Field_1":"Boundary Ave & Grove St"}},{"type":"Feature","geometry":{"type":"Point","coordinates":[-92.1721086209406,46.7408213554165]},"properties":{"name":"59 AW & Cody St","altitudeMode":"clampToGround","stop_lat":46.740838,"stop_timez":null,"stop_code":"Jan-68","location_t":0,"stop_lon":-92.172124,"FID_route_3_Buffer":1,"parent_sta":null,"stop_url":null,"zone_id":null,"stop_id":"Jan-68","FID_GTFS_Stops_02212017":218,"stop_desc":null,"stop_name":"59 AW & Cody St","wheelchair":0,"Field_1":"59 AW & Cody St"}},{"type":"Feature","geometry":{"type":"Point","coordinates":[-92.1718466214986,46.7410743555466]},"properties":{"name":"59 AW & Cody St","altitudeMode":"clampToGround","stop_lat":46.741091,"stop_timez":null,"stop_code":"Feb-68","location_t":0,"stop_lon":-92.171862,"FID_route_3_Buffer":1,"parent_sta":null,"stop_url":null,"zone_id":null,"stop_id":"Feb-68","FID_GTFS_Stops_02212017":977,"stop_desc":null,"stop_name":"59 AW & Cody St","wheelchair":0,"Field_1":"59 AW & Cody St"}},{"type":"Feature","geometry":{"type":"Point","coordinates":[-92.211266598215,46.7415813609524]},"properties":{"name":"Foxtail Ave & Arbutus Dr","altitudeMode":"clampToGround","stop_lat":46.741598,"stop_timez":null,"stop_code":"Feb-03","location_t":0,"stop_lon":-92.211282,"FID_route_3_Buffer":1,"parent_sta":null,"stop_url":null,"zone_id":null,"stop_id":"Feb-03","FID_GTFS_Stops_02212017":1485,"stop_desc":null,"stop_name":"Foxtail Ave & Arbutus Dr","wheelchair":0,"Field_1":"Foxtail Ave & Arbutus Dr"}},{"type":"Feature","geometry":{"type":"Point","coordinates":[-92.1708686214666,46.7414073552764]},"properties":{"name":"Cody St & 58 AW","altitudeMode":"clampToGround","stop_lat":46.741424,"stop_timez":null,"stop_code":"Feb-12","location_t":0,"stop_lon":-92.170884,"FID_route_3_Buffer":1,"parent_sta":null,"stop_url":null,"zone_id":null,"stop_id":"Feb-12","FID_GTFS_Stops_02212017":1436,"stop_desc":null,"stop_name":"Cody St & 58 AW","wheelchair":0,"Field_1":"Cody St & 58 AW"}},{"type":"Feature","geometry":{"type":"Point","coordinates":[-92.2171585943269,46.7417673613447]},"properties":{"name":"Boundry Ave & Oak St","altitudeMode":"clampToGround","stop_lat":46.741784,"stop_timez":null,"stop_code":"6-0015","location_t":0,"stop_lon":-92.217174,"FID_route_3_Buffer":1,"parent_sta":null,"stop_url":null,"zone_id":null,"stop_id":"6-0015","FID_GTFS_Stops_02212017":1576,"stop_desc":null,"stop_name":"Boundry Ave & Oak St","wheelchair":0,"Field_1":"Boundry Ave & Oak St"}},{"type":"Feature","geometry":{"type":"Point","coordinates":[-92.1703466217604,46.741487354717]},"properties":{"name":"Cody St & 58 AW","altitudeMode":"clampToGround","stop_lat":46.741504,"stop_timez":null,"stop_code":"Jan-12","location_t":0,"stop_lon":-92.170362,"FID_route_3_Buffer":1,"parent_sta":null,"stop_url":null,"zone_id":null,"stop_id":"Jan-12","FID_GTFS_Stops_02212017":701,"stop_desc":null,"stop_name":"Cody St & 58 AW","wheelchair":0,"Field_1":"Cody St & 58 AW"}},{"type":"Feature","geometry":{"type":"Point","coordinates":[-92.1692776226885,46.7415763545565]},"properties":{"name":"57 AW & Cody St","altitudeMode":"clampToGround","stop_lat":46.741593,"stop_timez":null,"stop_code":"Jan-15","location_t":0,"stop_lon":-92.169293,"FID_route_3_Buffer":1,"parent_sta":null,"stop_url":null,"zone_id":null,"stop_id":"Jan-15","FID_GTFS_Stops_02212017":723,"stop_desc":null,"stop_name":"57 AW & Cody St","wheelchair":0,"Field_1":"57 AW & Cody St"}},{"type":"Feature","geometry":{"type":"Point","coordinates":[-92.1653536245343,46.741698353786]},"properties":{"name":"Grand Ave & Memorial Fiel","altitudeMode":"clampToGround","stop_lat":46.741715,"stop_timez":null,"stop_code":"4-0026","location_t":0,"stop_lon":-92.165369,"FID_route_3_Buffer":1,"parent_sta":null,"stop_url":null,"zone_id":null,"stop_id":"4-0026","FID_GTFS_Stops_02212017":1531,"stop_desc":null,"stop_name":"Grand Ave & Memorial Fiel","wheelchair":0,"Field_1":"Grand Ave & Memorial Fiel"}},{"type":"Feature","geometry":{"type":"Point","coordinates":[-92.1651446245377,46.7418063542985]},"properties":{"name":"Grand Ave & US Bank","altitudeMode":"clampToGround","stop_lat":46.741823,"stop_timez":null,"stop_code":"6-0009","location_t":0,"stop_lon":-92.16516,"FID_route_3_Buffer":1,"parent_sta":null,"stop_url":null,"zone_id":null,"stop_id":"6-0009","FID_GTFS_Stops_02212017":1575,"stop_desc":null,"stop_name":"Grand Ave & US Bank","wheelchair":0,"Field_1":"Grand Ave & US Bank"}},{"type":"Feature","geometry":{"type":"Point","coordinates":[-92.2170925939465,46.7423993614938]},"properties":{"name":"Boundary Ave & 01 St","altitudeMode":"clampToGround","stop_lat":46.742416,"stop_timez":null,"stop_code":"Feb-81","location_t":0,"stop_lon":-92.217108,"FID_route_3_Buffer":1,"parent_sta":null,"stop_url":null,"zone_id":null,"stop_id":"Feb-81","FID_GTFS_Stops_02212017":796,"stop_desc":null,"stop_name":"Boundary Ave & 01 St","wheelchair":0,"Field_1":"Boundary Ave & 01 St"}},{"type":"Feature","geometry":{"type":"Point","coordinates":[-92.21714359379,46.74305836143]},"properties":{"name":"Boundary Ave & 01 St","altitudeMode":"clampToGround","stop_lat":46.743075,"stop_timez":null,"stop_code":"Feb-07","location_t":0,"stop_lon":-92.217159,"FID_route_3_Buffer":1,"parent_sta":null,"stop_url":null,"zone_id":null,"stop_id":"Feb-07","FID_GTFS_Stops_02212017":1462,"stop_desc":null,"stop_name":"Boundary Ave & 01 St","wheelchair":0,"Field_1":"Boundary Ave & 01 St"}},{"type":"Feature","geometry":{"type":"Point","coordinates":[-92.1692096220606,46.742723354006]},"properties":{"name":"57 AW & Elinor St","altitudeMode":"clampToGround","stop_lat":46.74274,"stop_timez":null,"stop_code":"Feb-53","location_t":0,"stop_lon":-92.169225,"FID_route_3_Buffer":1,"parent_sta":null,"stop_url":null,"zone_id":null,"stop_id":"Feb-53","FID_GTFS_Stops_02212017":967,"stop_desc":null,"stop_name":"57 AW & Elinor St","wheelchair":0,"Field_1":"57 AW & Elinor St"}},{"type":"Feature","geometry":{"type":"Point","coordinates":[-92.1692486227191,46.7429583540316]},"properties":{"name":"57 AW & Elinor St","altitudeMode":"clampToGround","stop_lat":46.742975,"stop_timez":null,"stop_code":"Jan-53","location_t":0,"stop_lon":-92.169264,"FID_route_3_Buffer":1,"parent_sta":null,"stop_url":null,"zone_id":null,"stop_id":"Jan-53","FID_GTFS_Stops_02212017":206,"stop_desc":null,"stop_name":"57 AW & Elinor St","wheelchair":0,"Field_1":"57 AW & Elinor St"}},{"type":"Feature","geometry":{"type":"Point","coordinates":[-92.1635386261668,46.7429423535125]},"properties":{"name":"Grand Ave & Elinor St","altitudeMode":"clampToGround","stop_lat":46.742959,"stop_timez":null,"stop_code":"Feb-31","location_t":0,"stop_lon":-92.163554,"FID_route_3_Buffer":1,"parent_sta":null,"stop_url":null,"zone_id":null,"stop_id":"Feb-31","FID_GTFS_Stops_02212017":1182,"stop_desc":null,"stop_name":"Grand Ave & Elinor St","wheelchair":0,"Field_1":"Grand Ave & Elinor St"}},{"type":"Feature","geometry":{"type":"Point","coordinates":[-92.1634606257665,46.7429603532375]},"properties":{"name":"Grand Ave & Elinor St","altitudeMode":"clampToGround","stop_lat":46.742977,"stop_timez":null,"stop_code":"Jan-31","location_t":0,"stop_lon":-92.163476,"FID_route_3_Buffer":1,"parent_sta":null,"stop_url":null,"zone_id":null,"stop_id":"Jan-31","FID_GTFS_Stops_02212017":433,"stop_desc":null,"stop_name":"Grand Ave & Elinor St","wheelchair":0,"Field_1":"Grand Ave & Elinor St"}},{"type":"Feature","geometry":{"type":"Point","coordinates":[-92.2171035942564,46.7436903611324]},"properties":{"name":"Boundary Ave & Orchard St","altitudeMode":"clampToGround","stop_lat":46.743707,"stop_timez":null,"stop_code":"Feb-63","location_t":0,"stop_lon":-92.217119,"FID_route_3_Buffer":1,"parent_sta":null,"stop_url":null,"zone_id":null,"stop_id":"Feb-63","FID_GTFS_Stops_02212017":1303,"stop_desc":null,"stop_name":"Boundary Ave & Orchard St","wheelchair":0,"Field_1":"Boundary Ave & Orchard St"}},{"type":"Feature","geometry":{"type":"Point","coordinates":[-92.2295915867883,46.74387036299]},"properties":{"name":"02 St & 06 Ave","altitudeMode":"clampToGround","stop_lat":46.743887,"stop_timez":null,"stop_code":"Jan-39","location_t":0,"stop_lon":-92.229607,"FID_route_3_Buffer":1,"parent_sta":null,"stop_url":null,"zone_id":null,"stop_id":"Jan-39","FID_GTFS_Stops_02212017":267,"stop_desc":null,"stop_name":"02 St & 06 Ave","wheelchair":0,"Field_1":"02 St & 06 Ave"}},{"type":"Feature","geometry":{"type":"Point","coordinates":[-92.2310125855507,46.7438893627041]},"properties":{"name":"02 St & 07 Ave","altitudeMode":"clampToGround","stop_lat":46.743906,"stop_timez":null,"stop_code":"Feb-68","location_t":0,"stop_lon":-92.231028,"FID_route_3_Buffer":1,"parent_sta":null,"stop_url":null,"zone_id":null,"stop_id":"Feb-68","FID_GTFS_Stops_02212017":1039,"stop_desc":null,"stop_name":"02 St & 07 Ave","wheelchair":0,"Field_1":"02 St & 07 Ave"}},{"type":"Feature","geometry":{"type":"Point","coordinates":[-92.2284185866638,46.7438793623393]},"properties":{"name":"02 St & 05 Ave","altitudeMode":"clampToGround","stop_lat":46.743896,"stop_timez":null,"stop_code":"Jan-75","location_t":0,"stop_lon":-92.228434,"FID_route_3_Buffer":1,"parent_sta":null,"stop_url":null,"zone_id":null,"stop_id":"Jan-75","FID_GTFS_Stops_02212017":223,"stop_desc":null,"stop_name":"02 St & 05 Ave","wheelchair":0,"Field_1":"02 St & 05 Ave"}},{"type":"Feature","geometry":{"type":"Point","coordinates":[-92.2291745865518,46.7438973629696]},"properties":{"name":"02 St & 06 AE","altitudeMode":"clampToGround","stop_lat":46.743914,"stop_timez":null,"stop_code":"Feb-39","location_t":0,"stop_lon":-92.22919,"FID_route_3_Buffer":1,"parent_sta":null,"stop_url":null,"zone_id":null,"stop_id":"Feb-39","FID_GTFS_Stops_02212017":1020,"stop_desc":null,"stop_name":"02 St & 06 AE","wheelchair":0,"Field_1":"02 St & 06 AE"}},{"type":"Feature","geometry":{"type":"Point","coordinates":[-92.2280405880098,46.7439053621591]},"properties":{"name":"02 St & 05 Ave","altitudeMode":"clampToGround","stop_lat":46.743922,"stop_timez":null,"stop_code":"Feb-75","location_t":0,"stop_lon":-92.228056,"FID_route_3_Buffer":1,"parent_sta":null,"stop_url":null,"zone_id":null,"stop_id":"Feb-75","FID_GTFS_Stops_02212017":983,"stop_desc":null,"stop_name":"02 St & 05 Ave","wheelchair":0,"Field_1":"02 St & 05 Ave"}},{"type":"Feature","geometry":{"type":"Point","coordinates":[-92.2312995853132,46.7439353627994]},"properties":{"name":"07 Ave & 02 St","altitudeMode":"clampToGround","stop_lat":46.743952,"stop_timez":null,"stop_code":"Jan-68","location_t":0,"stop_lon":-92.231315,"FID_route_3_Buffer":1,"parent_sta":null,"stop_url":null,"zone_id":null,"stop_id":"Jan-68","FID_GTFS_Stops_02212017":286,"stop_desc":null,"stop_name":"07 Ave & 02 St","wheelchair":0,"Field_1":"07 Ave & 02 St"}},{"type":"Feature","geometry":{"type":"Point","coordinates":[-92.2246635892809,46.743912362252]},"properties":{"name":"02 St & Hwy 02","altitudeMode":"clampToGround","stop_lat":46.743929,"stop_timez":null,"stop_code":"Feb-10","location_t":0,"stop_lon":-92.224679,"FID_route_3_Buffer":1,"parent_sta":null,"stop_url":null,"zone_id":null,"stop_id":"Feb-10","FID_GTFS_Stops_02212017":1463,"stop_desc":null,"stop_name":"02 St & Hwy 02","wheelchair":0,"Field_1":"02 St & Hwy 02"}},{"type":"Feature","geometry":{"type":"Point","coordinates":[-92.21714159414,46.7440783613669]},"properties":{"name":"Boundary Ave & 02 St","altitudeMode":"clampToGround","stop_lat":46.744095,"stop_timez":null,"stop_code":"Feb-05","location_t":0,"stop_lon":-92.217157,"FID_route_3_Buffer":1,"parent_sta":null,"stop_url":null,"zone_id":null,"stop_id":"Feb-05","FID_GTFS_Stops_02212017":1461,"stop_desc":null,"stop_name":"Boundary Ave & 02 St","wheelchair":0,"Field_1":"Boundary Ave & 02 St"}},{"type":"Feature","geometry":{"type":"Point","coordinates":[-92.162154625891,46.7439163533322]},"properties":{"name":"Grand Ave & 48 AW","altitudeMode":"clampToGround","stop_lat":46.743933,"stop_timez":null,"stop_code":"Jan-73","location_t":0,"stop_lon":-92.16217,"FID_route_3_Buffer":1,"parent_sta":null,"stop_url":null,"zone_id":null,"stop_id":"Jan-73","FID_GTFS_Stops_02212017":151,"stop_desc":null,"stop_name":"Grand Ave & 48 AW","wheelchair":0,"Field_1":"Grand Ave & 48 AW"}},{"type":"Feature","geometry":{"type":"Point","coordinates":[-92.1692066224352,46.7440413541008]},"properties":{"name":"57 AW & Kinnear West Pl","altitudeMode":"clampToGround","stop_lat":46.744058,"stop_timez":null,"stop_code":"Feb-57","location_t":0,"stop_lon":-92.169222,"FID_route_3_Buffer":1,"parent_sta":null,"stop_url":null,"zone_id":null,"stop_id":"Feb-57","FID_GTFS_Stops_02212017":970,"stop_desc":null,"stop_name":"57 AW & Kinnear West Pl","wheelchair":0,"Field_1":"57 AW & Kinnear West Pl"}},{"type":"Feature","geometry":{"type":"Point","coordinates":[-92.1692456220509,46.7441953538609]},"properties":{"name":"57 AW & Kinnear West Pl","altitudeMode":"clampToGround","stop_lat":46.744212,"stop_timez":null,"stop_code":"Jan-57","location_t":0,"stop_lon":-92.169261,"FID_route_3_Buffer":1,"parent_sta":null,"stop_url":null,"zone_id":null,"stop_id":"Jan-57","FID_GTFS_Stops_02212017":210,"stop_desc":null,"stop_name":"57 AW & Kinnear West Pl","wheelchair":0,"Field_1":"57 AW & Kinnear West Pl"}},{"type":"Feature","geometry":{"type":"Point","coordinates":[-92.1619056262375,46.7441593529627]},"properties":{"name":"Grand Ave & 48 AW","altitudeMode":"clampToGround","stop_lat":46.744176,"stop_timez":null,"stop_code":"Feb-73","location_t":0,"stop_lon":-92.161921,"FID_route_3_Buffer":1,"parent_sta":null,"stop_url":null,"zone_id":null,"stop_id":"Feb-73","FID_GTFS_Stops_02212017":922,"stop_desc":null,"stop_name":"Grand Ave & 48 AW","wheelchair":0,"Field_1":"Grand Ave & 48 AW"}},{"type":"Feature","geometry":{"type":"Point","coordinates":[-92.2312595849355,46.7447203628635]},"properties":{"name":"07 Ave & 03 St","altitudeMode":"clampToGround","stop_lat":46.744737,"stop_timez":null,"stop_code":"Feb-19","location_t":0,"stop_lon":-92.231275,"FID_route_3_Buffer":1,"parent_sta":null,"stop_url":null,"zone_id":null,"stop_id":"Feb-19","FID_GTFS_Stops_02212017":883,"stop_desc":null,"stop_name":"07 Ave & 03 St","wheelchair":0,"Field_1":"07 Ave & 03 St"}},{"type":"Feature","geometry":{"type":"Point","coordinates":[-92.2242455895699,46.7447433616064]},"properties":{"name":"03 St & Hwy 02","altitudeMode":"clampToGround","stop_lat":46.74476,"stop_timez":null,"stop_code":"Jan-08","location_t":0,"stop_lon":-92.224261,"FID_route_3_Buffer":1,"parent_sta":null,"stop_url":null,"zone_id":null,"stop_id":"Jan-08","FID_GTFS_Stops_02212017":722,"stop_desc":null,"stop_name":"03 St & Hwy 02","wheelchair":0,"Field_1":"03 St & Hwy 02"}},{"type":"Feature","geometry":{"type":"Point","coordinates":[-92.2363305816399,46.7448863631279]},"properties":{"name":"03 St btw Ugstad & 09th Proctor","altitudeMode":"clampToGround","stop_lat":46.744903,"stop_timez":null,"stop_code":"Feb-11","location_t":0,"stop_lon":-92.236346,"FID_route_3_Buffer":1,"parent_sta":null,"stop_url":null,"zone_id":null,"stop_id":"Feb-11","FID_GTFS_Stops_02212017":881,"stop_desc":null,"stop_name":"03 St btw Ugstad & 09th Proctor","wheelchair":0,"Field_1":"03 St btw Ugstad & 09th Proctor"}},{"type":"Feature","geometry":{"type":"Point","coordinates":[-92.2170885936436,46.7447823611302]},"properties":{"name":"Boundary Ave & Meadow St","altitudeMode":"clampToGround","stop_lat":46.744799,"stop_timez":null,"stop_code":"Feb-81","location_t":0,"stop_lon":-92.217104,"FID_route_3_Buffer":1,"parent_sta":null,"stop_url":null,"zone_id":null,"stop_id":"Feb-81","FID_GTFS_Stops_02212017":1256,"stop_desc":null,"stop_name":"Boundary Ave & Meadow St","wheelchair":0,"Field_1":"Boundary Ave & Meadow St"}},{"type":"Feature","geometry":{"type":"Point","coordinates":[-92.2243235889047,46.7449053614463]},"properties":{"name":"03 Ave & Hwy 02","altitudeMode":"clampToGround","stop_lat":46.744922,"stop_timez":null,"stop_code":"6-0016","location_t":0,"stop_lon":-92.224339,"FID_route_3_Buffer":1,"parent_sta":null,"stop_url":null,"zone_id":null,"stop_id":"6-0016","FID_GTFS_Stops_02212017":1577,"stop_desc":null,"stop_name":"03 Ave & Hwy 02","wheelchair":0,"Field_1":"03 Ave & Hwy 02"}},{"type":"Feature","geometry":{"type":"Point","coordinates":[-92.2313115847248,46.7449733623979]},"properties":{"name":"07 Ave & 03 St","altitudeMode":"clampToGround","stop_lat":46.74499,"stop_timez":null,"stop_code":"Jan-19","location_t":0,"stop_lon":-92.231327,"FID_route_3_Buffer":1,"parent_sta":null,"stop_url":null,"zone_id":null,"stop_id":"Jan-19","FID_GTFS_Stops_02212017":117,"stop_desc":null,"stop_name":"07 Ave & 03 St","wheelchair":0,"Field_1":"07 Ave & 03 St"}},{"type":"Feature","geometry":{"type":"Point","coordinates":[-92.1691916223107,46.7447183539085]},"properties":{"name":"57 AW & West Pl","altitudeMode":"clampToGround","stop_lat":46.744735,"stop_timez":null,"stop_code":"Feb-61","location_t":0,"stop_lon":-92.169207,"FID_route_3_Buffer":1,"parent_sta":null,"stop_url":null,"zone_id":null,"stop_id":"Feb-61","FID_GTFS_Stops_02212017":973,"stop_desc":null,"stop_name":"57 AW & West Pl","wheelchair":0,"Field_1":"57 AW & West Pl"}},{"type":"Feature","geometry":{"type":"Point","coordinates":[-92.217140593047,46.7450983607565]},"properties":{"name":"Boundary Ave & 03 St","altitudeMode":"clampToGround","stop_lat":46.745115,"stop_timez":null,"stop_code":"Feb-04","location_t":0,"stop_lon":-92.217156,"FID_route_3_Buffer":1,"parent_sta":null,"stop_url":null,"zone_id":null,"stop_id":"Feb-04","FID_GTFS_Stops_02212017":1460,"stop_desc":null,"stop_name":"Boundary Ave & 03 St","wheelchair":0,"Field_1":"Boundary Ave & 03 St"}},{"type":"Feature","geometry":{"type":"Point","coordinates":[-92.1609266271266,46.7448083526348]},"properties":{"name":"Grand Ave & 47 AW","altitudeMode":"clampToGround","stop_lat":46.744825,"stop_timez":null,"stop_code":"Jan-71","location_t":0,"stop_lon":-92.160942,"FID_route_3_Buffer":1,"parent_sta":null,"stop_url":null,"zone_id":null,"stop_id":"Jan-71","FID_GTFS_Stops_02212017":149,"stop_desc":null,"stop_name":"Grand Ave & 47 AW","wheelchair":0,"Field_1":"Grand Ave & 47 AW"}},{"type":"Feature","geometry":{"type":"Point","coordinates":[-92.1605086261944,46.7451513529451]},"properties":{"name":"Grand Ave & 47 AW","altitudeMode":"clampToGround","stop_lat":46.745168,"stop_timez":null,"stop_code":"Feb-71","location_t":0,"stop_lon":-92.160524,"FID_route_3_Buffer":1,"parent_sta":null,"stop_url":null,"zone_id":null,"stop_id":"Feb-71","FID_GTFS_Stops_02212017":921,"stop_desc":null,"stop_name":"Grand Ave & 47 AW","wheelchair":0,"Field_1":"Grand Ave & 47 AW"}},{"type":"Feature","geometry":{"type":"Point","coordinates":[-92.2312705846073,46.7457863620592]},"properties":{"name":"07 Ave & 04 St","altitudeMode":"clampToGround","stop_lat":46.745803,"stop_timez":null,"stop_code":"Feb-16","location_t":0,"stop_lon":-92.231286,"FID_route_3_Buffer":1,"parent_sta":null,"stop_url":null,"zone_id":null,"stop_id":"Feb-16","FID_GTFS_Stops_02212017":952,"stop_desc":null,"stop_name":"07 Ave & 04 St","wheelchair":0,"Field_1":"07 Ave & 04 St"}},{"type":"Feature","geometry":{"type":"Point","coordinates":[-92.237815581632,46.7458353636321]},"properties":{"name":"04 St & Ugstad Rd","altitudeMode":"clampToGround","stop_lat":46.745852,"stop_timez":null,"stop_code":"Feb-11","location_t":0,"stop_lon":-92.237831,"FID_route_3_Buffer":1,"parent_sta":null,"stop_url":null,"zone_id":null,"stop_id":"Feb-11","FID_GTFS_Stops_02212017":1464,"stop_desc":null,"stop_name":"04 St & Ugstad Rd","wheelchair":0,"Field_1":"04 St & Ugstad Rd"}},{"type":"Feature","geometry":{"type":"Point","coordinates":[-92.2351295832227,46.7458523628884]},"properties":{"name":"04 St & 09 St - Proctor Layover","altitudeMode":"clampToGround","stop_lat":46.745869,"stop_timez":null,"stop_code":"Mar-58","location_t":0,"stop_lon":-92.235145,"FID_route_3_Buffer":1,"parent_sta":null,"stop_url":null,"zone_id":null,"stop_id":"Mar-58","FID_GTFS_Stops_02212017":1503,"stop_desc":null,"stop_name":"04 St & 09 St - Proctor Layover","wheelchair":0,"Field_1":"04 St & 09 St - Proctor Layover"}},{"type":"Feature","geometry":{"type":"Point","coordinates":[-92.2331615833118,46.7458683630935]},"properties":{"name":"04 St & 08 Ave","altitudeMode":"clampToGround","stop_lat":46.745885,"stop_timez":null,"stop_code":"Jan-01","location_t":0,"stop_lon":-92.233177,"FID_route_3_Buffer":1,"parent_sta":null,"stop_url":null,"zone_id":null,"stop_id":"Jan-01","FID_GTFS_Stops_02212017":309,"stop_desc":null,"stop_name":"04 St & 08 Ave","wheelchair":0,"Field_1":"04 St & 08 Ave"}},{"type":"Feature","geometry":{"type":"Point","coordinates":[-92.2315445852092,46.7458583629098]},"properties":{"name":"04 St & 07 Ave","altitudeMode":"clampToGround","stop_lat":46.745875,"stop_timez":null,"stop_code":"Jan-16","location_t":0,"stop_lon":-92.23156,"FID_route_3_Buffer":1,"parent_sta":null,"stop_url":null,"zone_id":null,"stop_id":"Jan-16","FID_GTFS_Stops_02212017":183,"stop_desc":null,"stop_name":"04 St & 07 Ave","wheelchair":0,"Field_1":"04 St & 07 Ave"}},{"type":"Feature","geometry":{"type":"Point","coordinates":[-92.2353905825597,46.7458883634704]},"properties":{"name":"04 St & 09 Ave","altitudeMode":"clampToGround","stop_lat":46.745905,"stop_timez":null,"stop_code":"Feb-19","location_t":0,"stop_lon":-92.235406,"FID_route_3_Buffer":1,"parent_sta":null,"stop_url":null,"zone_id":null,"stop_id":"Feb-19","FID_GTFS_Stops_02212017":1070,"stop_desc":null,"stop_name":"04 St & 09 Ave","wheelchair":0,"Field_1":"04 St & 09 Ave"}},{"type":"Feature","geometry":{"type":"Point","coordinates":[-92.2170735933407,46.7457753605689]},"properties":{"name":"Boundary Ave & Brook","altitudeMode":"clampToGround","stop_lat":46.745792,"stop_timez":null,"stop_code":"Feb-30","location_t":0,"stop_lon":-92.217089,"FID_route_3_Buffer":1,"parent_sta":null,"stop_url":null,"zone_id":null,"stop_id":"Feb-30","FID_GTFS_Stops_02212017":1119,"stop_desc":null,"stop_name":"Boundary Ave & Brook","wheelchair":0,"Field_1":"Boundary Ave & Brook"}},{"type":"Feature","geometry":{"type":"Point","coordinates":[-92.2328485842233,46.7458863622834]},"properties":{"name":"04 St & 08 Ave","altitudeMode":"clampToGround","stop_lat":46.745903,"stop_timez":null,"stop_code":"Feb-01","location_t":0,"stop_lon":-92.232864,"FID_route_3_Buffer":1,"parent_sta":null,"stop_url":null,"zone_id":null,"stop_id":"Feb-01","FID_GTFS_Stops_02212017":1060,"stop_desc":null,"stop_name":"04 St & 08 Ave","wheelchair":0,"Field_1":"04 St & 08 Ave"}},{"type":"Feature","geometry":{"type":"Point","coordinates":[-92.1692296219099,46.7455673535585]},"properties":{"name":"57 AW & 08 St","altitudeMode":"clampToGround","stop_lat":46.745584,"stop_timez":null,"stop_code":"Jan-51","location_t":0,"stop_lon":-92.169245,"FID_route_3_Buffer":1,"parent_sta":null,"stop_url":null,"zone_id":null,"stop_id":"Jan-51","FID_GTFS_Stops_02212017":205,"stop_desc":null,"stop_name":"57 AW & 08 St","wheelchair":0,"Field_1":"57 AW & 08 St"}},{"type":"Feature","geometry":{"type":"Point","coordinates":[-92.2171255934621,46.7460923599649]},"properties":{"name":"Boundary Ave & 04 St","altitudeMode":"clampToGround","stop_lat":46.746109,"stop_timez":null,"stop_code":"Feb-03","location_t":0,"stop_lon":-92.217141,"FID_route_3_Buffer":1,"parent_sta":null,"stop_url":null,"zone_id":null,"stop_id":"Feb-03","FID_GTFS_Stops_02212017":1459,"stop_desc":null,"stop_name":"Boundary Ave & 04 St","wheelchair":0,"Field_1":"Boundary Ave & 04 St"}},{"type":"Feature","geometry":{"type":"Point","coordinates":[-92.169189621224,46.7458113532971]},"properties":{"name":"57 AW & 08 St","altitudeMode":"clampToGround","stop_lat":46.745828,"stop_timez":null,"stop_code":"Feb-51","location_t":0,"stop_lon":-92.169205,"FID_route_3_Buffer":1,"parent_sta":null,"stop_url":null,"zone_id":null,"stop_id":"Feb-51","FID_GTFS_Stops_02212017":966,"stop_desc":null,"stop_name":"57 AW & 08 St","wheelchair":0,"Field_1":"57 AW & 08 St"}},{"type":"Feature","geometry":{"type":"Point","coordinates":[-92.1594246278095,46.7458723523643]},"properties":{"name":"Grand Ave & 46 AW - IB","altitudeMode":"clampToGround","stop_lat":46.745889,"stop_timez":null,"stop_code":"6-0025","location_t":0,"stop_lon":-92.15944,"FID_route_3_Buffer":1,"parent_sta":null,"stop_url":null,"zone_id":null,"stop_id":"6-0025","FID_GTFS_Stops_02212017":1585,"stop_desc":null,"stop_name":"Grand Ave & 46 AW - IB","wheelchair":0,"Field_1":"Grand Ave & 46 AW - IB"}},{"type":"Feature","geometry":{"type":"Point","coordinates":[-92.1593466276355,46.7459983525396]},"properties":{"name":"46 AW & Grand Ave","altitudeMode":"clampToGround","stop_lat":46.746015,"stop_timez":null,"stop_code":"Feb-69","location_t":0,"stop_lon":-92.159362,"FID_route_3_Buffer":1,"parent_sta":null,"stop_url":null,"zone_id":null,"stop_id":"Feb-69","FID_GTFS_Stops_02212017":920,"stop_desc":null,"stop_name":"46 AW & Grand Ave","wheelchair":0,"Field_1":"46 AW & Grand Ave"}},{"type":"Feature","geometry":{"type":"Point","coordinates":[-92.1592146267473,46.7460683524224]},"properties":{"name":"Grand Ave & 46 AW - OB","altitudeMode":"clampToGround","stop_lat":46.746085,"stop_timez":null,"stop_code":"6-0024","location_t":0,"stop_lon":-92.15923,"FID_route_3_Buffer":1,"parent_sta":null,"stop_url":null,"zone_id":null,"stop_id":"6-0024","FID_GTFS_Stops_02212017":1584,"stop_desc":null,"stop_name":"Grand Ave & 46 AW - OB","wheelchair":0,"Field_1":"Grand Ave & 46 AW - OB"}},{"type":"Feature","geometry":{"type":"Point","coordinates":[-92.2242295885243,46.7466843609564]},"properties":{"name":"03 Ave & 05 St","altitudeMode":"clampToGround","stop_lat":46.746701,"stop_timez":null,"stop_code":"Jan-02","location_t":0,"stop_lon":-92.224245,"FID_route_3_Buffer":1,"parent_sta":null,"stop_url":null,"zone_id":null,"stop_id":"Jan-02","FID_GTFS_Stops_02212017":107,"stop_desc":null,"stop_name":"03 Ave & 05 St","wheelchair":0,"Field_1":"03 Ave & 05 St"}},{"type":"Feature","geometry":{"type":"Point","coordinates":[-92.217071593233,46.7468413604]},"properties":{"name":"Boundary Ave & Vinland","altitudeMode":"clampToGround","stop_lat":46.746858,"stop_timez":null,"stop_code":"Jan-16","location_t":0,"stop_lon":-92.217087,"FID_route_3_Buffer":1,"parent_sta":null,"stop_url":null,"zone_id":null,"stop_id":"Jan-16","FID_GTFS_Stops_02212017":655,"stop_desc":null,"stop_name":"Boundary Ave & Vinland","wheelchair":0,"Field_1":"Boundary Ave & Vinland"}},{"type":"Feature","geometry":{"type":"Point","coordinates":[-92.1691876209901,46.746551353622]},"properties":{"name":"57 AW & Olney St","altitudeMode":"clampToGround","stop_lat":46.746568,"stop_timez":null,"stop_code":"Feb-58","location_t":0,"stop_lon":-92.169203,"FID_route_3_Buffer":1,"parent_sta":null,"stop_url":null,"zone_id":null,"stop_id":"Feb-58","FID_GTFS_Stops_02212017":971,"stop_desc":null,"stop_name":"57 AW & Olney St","wheelchair":0,"Field_1":"57 AW & Olney St"}},{"type":"Feature","geometry":{"type":"Point","coordinates":[-92.224203589134,46.7469463614336]},"properties":{"name":"05 St & 03 Ave","altitudeMode":"clampToGround","stop_lat":46.746963,"stop_timez":null,"stop_code":"Feb-02","location_t":0,"stop_lon":-92.224219,"FID_route_3_Buffer":1,"parent_sta":null,"stop_url":null,"zone_id":null,"stop_id":"Feb-02","FID_GTFS_Stops_02212017":880,"stop_desc":null,"stop_name":"05 St & 03 Ave","wheelchair":0,"Field_1":"05 St & 03 Ave"}},{"type":"Feature","geometry":{"type":"Point","coordinates":[-92.2221045894542,46.746971360648]},"properties":{"name":"05 St & 02  Ave","altitudeMode":"clampToGround","stop_lat":46.746988,"stop_timez":null,"stop_code":"Jan-51","location_t":0,"stop_lon":-92.22212,"FID_route_3_Buffer":1,"parent_sta":null,"stop_url":null,"zone_id":null,"stop_id":"Jan-51","FID_GTFS_Stops_02212017":85,"stop_desc":null,"stop_name":"05 St & 02  Ave","wheelchair":0,"Field_1":"05 St & 02  Ave"}},{"type":"Feature","geometry":{"type":"Point","coordinates":[-92.2221955899562,46.7469893611802]},"properties":{"name":"05 St & 02 Ave","altitudeMode":"clampToGround","stop_lat":46.747006,"stop_timez":null,"stop_code":"Feb-51","location_t":0,"stop_lon":-92.222211,"FID_route_3_Buffer":1,"parent_sta":null,"stop_url":null,"zone_id":null,"stop_id":"Feb-51","FID_GTFS_Stops_02212017":847,"stop_desc":null,"stop_name":"05 St & 02 Ave","wheelchair":0,"Field_1":"05 St & 02 Ave"}},{"type":"Feature","geometry":{"type":"Point","coordinates":[-92.2199525910065,46.7469793601605]},"properties":{"name":"05 St & 01 Ave","altitudeMode":"clampToGround","stop_lat":46.746996,"stop_timez":null,"stop_code":"Jan-76","location_t":0,"stop_lon":-92.219968,"FID_route_3_Buffer":1,"parent_sta":null,"stop_url":null,"zone_id":null,"stop_id":"Jan-76","FID_GTFS_Stops_02212017":27,"stop_desc":null,"stop_name":"05 St & 01 Ave","wheelchair":0,"Field_1":"05 St & 01 Ave"}},{"type":"Feature","geometry":{"type":"Point","coordinates":[-92.2173455932966,46.746986359959]},"properties":{"name":"05 St & Boundary Ave","altitudeMode":"clampToGround","stop_lat":46.747003,"stop_timez":null,"stop_code":"5-0014","location_t":0,"stop_lon":-92.217361,"FID_route_3_Buffer":1,"parent_sta":null,"stop_url":null,"zone_id":null,"stop_id":"5-0014","FID_GTFS_Stops_02212017":1563,"stop_desc":null,"stop_name":"05 St & Boundary Ave","wheelchair":0,"Field_1":"05 St & Boundary Ave"}},{"type":"Feature","geometry":{"type":"Point","coordinates":[-92.2196405914606,46.7470053600354]},"properties":{"name":"05 St & 01 Ave","altitudeMode":"clampToGround","stop_lat":46.747022,"stop_timez":null,"stop_code":"Feb-76","location_t":0,"stop_lon":-92.219656,"FID_route_3_Buffer":1,"parent_sta":null,"stop_url":null,"zone_id":null,"stop_id":"Feb-76","FID_GTFS_Stops_02212017":793,"stop_desc":null,"stop_name":"05 St & 01 Ave","wheelchair":0,"Field_1":"05 St & 01 Ave"}},{"type":"Feature","geometry":{"type":"Point","coordinates":[-92.2147125943693,46.7469933595151]},"properties":{"name":"Vinland St & Midway Ave","altitudeMode":"clampToGround","stop_lat":46.74701,"stop_timez":null,"stop_code":"Jan-86","location_t":0,"stop_lon":-92.214728,"FID_route_3_Buffer":1,"parent_sta":null,"stop_url":null,"zone_id":null,"stop_id":"Jan-86","FID_GTFS_Stops_02212017":519,"stop_desc":null,"stop_name":"Vinland St & Midway Ave","wheelchair":0,"Field_1":"Vinland St & Midway Ave"}},{"type":"Feature","geometry":{"type":"Point","coordinates":[-92.2168895936343,46.7470123600023]},"properties":{"name":"Vinland St & Boundary Ave","altitudeMode":"clampToGround","stop_lat":46.747029,"stop_timez":null,"stop_code":"Feb-16","location_t":0,"stop_lon":-92.216905,"FID_route_3_Buffer":1,"parent_sta":null,"stop_url":null,"zone_id":null,"stop_id":"Feb-16","FID_GTFS_Stops_02212017":1388,"stop_desc":null,"stop_name":"Vinland St & Boundary Ave","wheelchair":0,"Field_1":"Vinland St & Boundary Ave"}},{"type":"Feature","geometry":{"type":"Point","coordinates":[-92.2120525959343,46.7469813591211]},"properties":{"name":"Vinland St & Portal Ave","altitudeMode":"clampToGround","stop_lat":46.746998,"stop_timez":null,"stop_code":"Jan-05","location_t":0,"stop_lon":-92.212068,"FID_route_3_Buffer":1,"parent_sta":null,"stop_url":null,"zone_id":null,"stop_id":"Jan-05","FID_GTFS_Stops_02212017":588,"stop_desc":null,"stop_name":"Vinland St & Portal Ave","wheelchair":0,"Field_1":"Vinland St & Portal Ave"}},{"type":"Feature","geometry":{"type":"Point","coordinates":[-92.1692266212805,46.7466873530876]},"properties":{"name":"57 AW & Olney St","altitudeMode":"clampToGround","stop_lat":46.746704,"stop_timez":null,"stop_code":"Jan-58","location_t":0,"stop_lon":-92.169242,"FID_route_3_Buffer":1,"parent_sta":null,"stop_url":null,"zone_id":null,"stop_id":"Jan-58","FID_GTFS_Stops_02212017":211,"stop_desc":null,"stop_name":"57 AW & Olney St","wheelchair":0,"Field_1":"57 AW & Olney St"}},{"type":"Feature","geometry":{"type":"Point","coordinates":[-92.2142945950053,46.7470103596891]},"properties":{"name":"Vinland St & Midway Ave","altitudeMode":"clampToGround","stop_lat":46.747027,"stop_timez":null,"stop_code":"Feb-86","location_t":0,"stop_lon":-92.21431,"FID_route_3_Buffer":1,"parent_sta":null,"stop_url":null,"zone_id":null,"stop_id":"Feb-86","FID_GTFS_Stops_02212017":1259,"stop_desc":null,"stop_name":"Vinland St & Midway Ave","wheelchair":0,"Field_1":"Vinland St & Midway Ave"}},{"type":"Feature","geometry":{"type":"Point","coordinates":[-92.2116615963082,46.7469993590089]},"properties":{"name":"Vinland St & Portal Ave","altitudeMode":"clampToGround","stop_lat":46.747016,"stop_timez":null,"stop_code":"Feb-05","location_t":0,"stop_lon":-92.211677,"FID_route_3_Buffer":1,"parent_sta":null,"stop_url":null,"zone_id":null,"stop_id":"Feb-05","FID_GTFS_Stops_02212017":1324,"stop_desc":null,"stop_name":"Vinland St & Portal Ave","wheelchair":0,"Field_1":"Vinland St & Portal Ave"}},{"type":"Feature","geometry":{"type":"Point","coordinates":[-92.2089365973358,46.7469973593538]},"properties":{"name":"Vinland St & 87 AW","altitudeMode":"clampToGround","stop_lat":46.747014,"stop_timez":null,"stop_code":"Feb-94","location_t":0,"stop_lon":-92.208952,"FID_route_3_Buffer":1,"parent_sta":null,"stop_url":null,"zone_id":null,"stop_id":"Feb-94","FID_GTFS_Stops_02212017":1056,"stop_desc":null,"stop_name":"Vinland St & 87 AW","wheelchair":0,"Field_1":"Vinland St & 87 AW"}},{"type":"Feature","geometry":{"type":"Point","coordinates":[-92.2039826001173,46.7469753586884]},"properties":{"name":"Vinland St @ 8301","altitudeMode":"clampToGround","stop_lat":46.746992,"stop_timez":null,"stop_code":"Jan-47","location_t":0,"stop_lon":-92.203998,"FID_route_3_Buffer":1,"parent_sta":null,"stop_url":null,"zone_id":null,"stop_id":"Jan-47","FID_GTFS_Stops_02212017":5,"stop_desc":null,"stop_name":"Vinland St @ 8301","wheelchair":0,"Field_1":"Vinland St @ 8301"}},{"type":"Feature","geometry":{"type":"Point","coordinates":[-92.2063555998783,46.7469953585688]},"properties":{"name":"Vinland St & 85 AW","altitudeMode":"clampToGround","stop_lat":46.747012,"stop_timez":null,"stop_code":"Feb-93","location_t":0,"stop_lon":-92.206371,"FID_route_3_Buffer":1,"parent_sta":null,"stop_url":null,"zone_id":null,"stop_id":"Feb-93","FID_GTFS_Stops_02212017":1055,"stop_desc":null,"stop_name":"Vinland St & 85 AW","wheelchair":0,"Field_1":"Vinland St & 85 AW"}},{"type":"Feature","geometry":{"type":"Point","coordinates":[-92.2013096023101,46.7469723575066]},"properties":{"name":"Vinland St & 81 AW","altitudeMode":"clampToGround","stop_lat":46.746989,"stop_timez":null,"stop_code":"Jan-87","location_t":0,"stop_lon":-92.201325,"FID_route_3_Buffer":1,"parent_sta":null,"stop_url":null,"zone_id":null,"stop_id":"Jan-87","FID_GTFS_Stops_02212017":301,"stop_desc":null,"stop_name":"Vinland St & 81 AW","wheelchair":0,"Field_1":"Vinland St & 81 AW"}},{"type":"Feature","geometry":{"type":"Point","coordinates":[-92.1583926271051,46.7466653513737]},"properties":{"name":"Grand Ave & 45 AW","altitudeMode":"clampToGround","stop_lat":46.746682,"stop_timez":null,"stop_code":"Feb-60","location_t":0,"stop_lon":-92.158408,"FID_route_3_Buffer":1,"parent_sta":null,"stop_url":null,"zone_id":null,"stop_id":"Feb-60","FID_GTFS_Stops_02212017":914,"stop_desc":null,"stop_name":"Grand Ave & 45 AW","wheelchair":0,"Field_1":"Grand Ave & 45 AW"}},{"type":"Feature","geometry":{"type":"Point","coordinates":[-92.2039696006689,46.7469933584829]},"properties":{"name":"Vinland St @ 8301","altitudeMode":"clampToGround","stop_lat":46.74701,"stop_timez":null,"stop_code":"Feb-47","location_t":0,"stop_lon":-92.203985,"FID_route_3_Buffer":1,"parent_sta":null,"stop_url":null,"zone_id":null,"stop_id":"Feb-47","FID_GTFS_Stops_02212017":774,"stop_desc":null,"stop_name":"Vinland St @ 8301","wheelchair":0,"Field_1":"Vinland St @ 8301"}},{"type":"Feature","geometry":{"type":"Point","coordinates":[-92.1980496042759,46.7469673577585]},"properties":{"name":"Vinland St & 78 AW","altitudeMode":"clampToGround","stop_lat":46.746984,"stop_timez":null,"stop_code":"Jan-66","location_t":0,"stop_lon":-92.198065,"FID_route_3_Buffer":1,"parent_sta":null,"stop_url":null,"zone_id":null,"stop_id":"Jan-66","FID_GTFS_Stops_02212017":285,"stop_desc":null,"stop_name":"Vinland St & 78 AW","wheelchair":0,"Field_1":"Vinland St & 78 AW"}},{"type":"Feature","geometry":{"type":"Point","coordinates":[-92.2010756020445,46.7469903576701]},"properties":{"name":"Vinland St & 81 AW","altitudeMode":"clampToGround","stop_lat":46.747007,"stop_timez":null,"stop_code":"Feb-87","location_t":0,"stop_lon":-92.201091,"FID_route_3_Buffer":1,"parent_sta":null,"stop_url":null,"zone_id":null,"stop_id":"Feb-87","FID_GTFS_Stops_02212017":1050,"stop_desc":null,"stop_name":"Vinland St & 81 AW","wheelchair":0,"Field_1":"Vinland St & 81 AW"}},{"type":"Feature","geometry":{"type":"Point","coordinates":[-92.1934616065607,46.7469383568676]},"properties":{"name":"Vinland St & 75 AW","altitudeMode":"clampToGround","stop_lat":46.746955,"stop_timez":null,"stop_code":"Jan-61","location_t":0,"stop_lon":-92.193477,"FID_route_3_Buffer":1,"parent_sta":null,"stop_url":null,"zone_id":null,"stop_id":"Jan-61","FID_GTFS_Stops_02212017":280,"stop_desc":null,"stop_name":"Vinland St & 75 AW","wheelchair":0,"Field_1":"Vinland St & 75 AW"}},{"type":"Feature","geometry":{"type":"Point","coordinates":[-92.1961996054996,46.7469683575794]},"properties":{"name":"Vinland St & 77 AW","altitudeMode":"clampToGround","stop_lat":46.746985,"stop_timez":null,"stop_code":"Jan-64","location_t":0,"stop_lon":-92.196215,"FID_route_3_Buffer":1,"parent_sta":null,"stop_url":null,"zone_id":null,"stop_id":"Jan-64","FID_GTFS_Stops_02212017":283,"stop_desc":null,"stop_name":"Vinland St & 77 AW","wheelchair":0,"Field_1":"Vinland St & 77 AW"}},{"type":"Feature","geometry":{"type":"Point","coordinates":[-92.1977376046412,46.7469873575356]},"properties":{"name":"Vinland St & 78 AW","altitudeMode":"clampToGround","stop_lat":46.747004,"stop_timez":null,"stop_code":"Feb-66","location_t":0,"stop_lon":-92.197753,"FID_route_3_Buffer":1,"parent_sta":null,"stop_url":null,"zone_id":null,"stop_id":"Feb-66","FID_GTFS_Stops_02212017":1037,"stop_desc":null,"stop_name":"Vinland St & 78 AW","wheelchair":0,"Field_1":"Vinland St & 78 AW"}},{"type":"Feature","geometry":{"type":"Point","coordinates":[-92.1957176060424,46.7469853568895]},"properties":{"name":"Vinland St & 77 AW","altitudeMode":"clampToGround","stop_lat":46.747002,"stop_timez":null,"stop_code":"Feb-64","location_t":0,"stop_lon":-92.195733,"FID_route_3_Buffer":1,"parent_sta":null,"stop_url":null,"zone_id":null,"stop_id":"Feb-64","FID_GTFS_Stops_02212017":1035,"stop_desc":null,"stop_name":"Vinland St & 77 AW","wheelchair":0,"Field_1":"Vinland St & 77 AW"}},{"type":"Feature","geometry":{"type":"Point","coordinates":[-92.1932666069071,46.7469743569861]},"properties":{"name":"Vinland St & 75 AW","altitudeMode":"clampToGround","stop_lat":46.746991,"stop_timez":null,"stop_code":"Feb-61","location_t":0,"stop_lon":-92.193282,"FID_route_3_Buffer":1,"parent_sta":null,"stop_url":null,"zone_id":null,"stop_id":"Feb-61","FID_GTFS_Stops_02212017":1032,"stop_desc":null,"stop_name":"Vinland St & 75 AW","wheelchair":0,"Field_1":"Vinland St & 75 AW"}},{"type":"Feature","geometry":{"type":"Point","coordinates":[-92.1579356281141,46.7469453515161]},"properties":{"name":"Grand Ave & 45 AW","altitudeMode":"clampToGround","stop_lat":46.746962,"stop_timez":null,"stop_code":"Jan-60","location_t":0,"stop_lon":-92.157951,"FID_route_3_Buffer":1,"parent_sta":null,"stop_url":null,"zone_id":null,"stop_id":"Jan-60","FID_GTFS_Stops_02212017":140,"stop_desc":null,"stop_name":"Grand Ave & 45 AW","wheelchair":0,"Field_1":"Grand Ave & 45 AW"}},{"type":"Feature","geometry":{"type":"Point","coordinates":[-92.1691726212352,46.7473283533504]},"properties":{"name":"57 AW & Huntington St","altitudeMode":"clampToGround","stop_lat":46.747345,"stop_timez":null,"stop_code":"Feb-56","location_t":0,"stop_lon":-92.169188,"FID_route_3_Buffer":1,"parent_sta":null,"stop_url":null,"zone_id":null,"stop_id":"Feb-56","FID_GTFS_Stops_02212017":969,"stop_desc":null,"stop_name":"57 AW & Huntington St","wheelchair":0,"Field_1":"57 AW & Huntington St"}},{"type":"Feature","geometry":{"type":"Point","coordinates":[-92.1692246212262,46.7475633530817]},"properties":{"name":"57 AW & Huntington St","altitudeMode":"clampToGround","stop_lat":46.74758,"stop_timez":null,"stop_code":"Jan-56","location_t":0,"stop_lon":-92.16924,"FID_route_3_Buffer":1,"parent_sta":null,"stop_url":null,"zone_id":null,"stop_id":"Jan-56","FID_GTFS_Stops_02212017":209,"stop_desc":null,"stop_name":"57 AW & Huntington St","wheelchair":0,"Field_1":"57 AW & Huntington St"}},{"type":"Feature","geometry":{"type":"Point","coordinates":[-92.1903576087547,46.7478743556521]},"properties":{"name":"Vinland St & Prince St","altitudeMode":"clampToGround","stop_lat":46.747891,"stop_timez":null,"stop_code":"Jan-06","location_t":0,"stop_lon":-92.190373,"FID_route_3_Buffer":1,"parent_sta":null,"stop_url":null,"zone_id":null,"stop_id":"Jan-06","FID_GTFS_Stops_02212017":589,"stop_desc":null,"stop_name":"Vinland St & Prince St","wheelchair":0,"Field_1":"Vinland St & Prince St"}},{"type":"Feature","geometry":{"type":"Point","coordinates":[-92.1569566284237,46.7476483509983]},"properties":{"name":"Grand Ave & 44 AW","altitudeMode":"clampToGround","stop_lat":46.747665,"stop_timez":null,"stop_code":"Jan-45","location_t":0,"stop_lon":-92.156972,"FID_route_3_Buffer":1,"parent_sta":null,"stop_url":null,"zone_id":null,"stop_id":"Jan-45","FID_GTFS_Stops_02212017":138,"stop_desc":null,"stop_name":"Grand Ave & 44 AW","wheelchair":0,"Field_1":"Grand Ave & 44 AW"}},{"type":"Feature","geometry":{"type":"Point","coordinates":[-92.1903836085738,46.7479013563596]},"properties":{"name":"Vinland St & Prince St","altitudeMode":"clampToGround","stop_lat":46.747918,"stop_timez":null,"stop_code":"Feb-06","location_t":0,"stop_lon":-92.190399,"FID_route_3_Buffer":1,"parent_sta":null,"stop_url":null,"zone_id":null,"stop_id":"Feb-06","FID_GTFS_Stops_02212017":1325,"stop_desc":null,"stop_name":"Vinland St & Prince St","wheelchair":0,"Field_1":"Vinland St & Prince St"}},{"type":"Feature","geometry":{"type":"Point","coordinates":[-92.1566946279288,46.7478553509031]},"properties":{"name":"Grand Ave & 44 AW","altitudeMode":"clampToGround","stop_lat":46.747872,"stop_timez":null,"stop_code":"Feb-45","location_t":0,"stop_lon":-92.15671,"FID_route_3_Buffer":1,"parent_sta":null,"stop_url":null,"zone_id":null,"stop_id":"Feb-45","FID_GTFS_Stops_02212017":902,"stop_desc":null,"stop_name":"Grand Ave & 44 AW","wheelchair":0,"Field_1":"Grand Ave & 44 AW"}},{"type":"Feature","geometry":{"type":"Point","coordinates":[-92.1691706206199,46.7482133533604]},"properties":{"name":"57 AW & Highland St","altitudeMode":"clampToGround","stop_lat":46.74823,"stop_timez":null,"stop_code":"Feb-55","location_t":0,"stop_lon":-92.169186,"FID_route_3_Buffer":1,"parent_sta":null,"stop_url":null,"zone_id":null,"stop_id":"Feb-55","FID_GTFS_Stops_02212017":968,"stop_desc":null,"stop_name":"57 AW & Highland St","wheelchair":0,"Field_1":"57 AW & Highland St"}},{"type":"Feature","geometry":{"type":"Point","coordinates":[-92.1781276156156,46.7483223541421]},"properties":{"name":"Highland St & 63 AW","altitudeMode":"clampToGround","stop_lat":46.748339,"stop_timez":null,"stop_code":"Jan-29","location_t":0,"stop_lon":-92.178143,"FID_route_3_Buffer":1,"parent_sta":null,"stop_url":null,"zone_id":null,"stop_id":"Jan-29","FID_GTFS_Stops_02212017":263,"stop_desc":null,"stop_name":"Highland St & 63 AW","wheelchair":0,"Field_1":"Highland St & 63 AW"}},{"type":"Feature","geometry":{"type":"Point","coordinates":[-92.1764586161836,46.7483203542606]},"properties":{"name":"Highland St & 62 AW","altitudeMode":"clampToGround","stop_lat":46.748337,"stop_timez":null,"stop_code":"Jan-25","location_t":0,"stop_lon":-92.176474,"FID_route_3_Buffer":1,"parent_sta":null,"stop_url":null,"zone_id":null,"stop_id":"Jan-25","FID_GTFS_Stops_02212017":260,"stop_desc":null,"stop_name":"Highland St & 62 AW","wheelchair":0,"Field_1":"Highland St & 62 AW"}},{"type":"Feature","geometry":{"type":"Point","coordinates":[-92.1791046150909,46.7483413546258]},"properties":{"name":"Highland St & Oneota Ceme","altitudeMode":"clampToGround","stop_lat":46.748358,"stop_timez":null,"stop_code":"Feb-62","location_t":0,"stop_lon":-92.17912,"FID_route_3_Buffer":1,"parent_sta":null,"stop_url":null,"zone_id":null,"stop_id":"Feb-62","FID_GTFS_Stops_02212017":1302,"stop_desc":null,"stop_name":"Highland St & Oneota Ceme","wheelchair":0,"Field_1":"Highland St & Oneota Ceme"}},{"type":"Feature","geometry":{"type":"Point","coordinates":[-92.1778276150101,46.7483493539054]},"properties":{"name":"Highland St & 63 AW","altitudeMode":"clampToGround","stop_lat":46.748366,"stop_timez":null,"stop_code":"Feb-29","location_t":0,"stop_lon":-92.177843,"FID_route_3_Buffer":1,"parent_sta":null,"stop_url":null,"zone_id":null,"stop_id":"Feb-29","FID_GTFS_Stops_02212017":1016,"stop_desc":null,"stop_name":"Highland St & 63 AW","wheelchair":0,"Field_1":"Highland St & 63 AW"}},{"type":"Feature","geometry":{"type":"Point","coordinates":[-92.1761586160555,46.7483473541516]},"properties":{"name":"Highland St & 62 AW","altitudeMode":"clampToGround","stop_lat":46.748364,"stop_timez":null,"stop_code":"Feb-25","location_t":0,"stop_lon":-92.176174,"FID_route_3_Buffer":1,"parent_sta":null,"stop_url":null,"zone_id":null,"stop_id":"Feb-25","FID_GTFS_Stops_02212017":1013,"stop_desc":null,"stop_name":"Highland St & 62 AW","wheelchair":0,"Field_1":"Highland St & 62 AW"}},{"type":"Feature","geometry":{"type":"Point","coordinates":[-92.1724036186631,46.7483433533532]},"properties":{"name":"Highland St & 59 AW","altitudeMode":"clampToGround","stop_lat":46.74836,"stop_timez":null,"stop_code":"Jan-71","location_t":0,"stop_lon":-92.172419,"FID_route_3_Buffer":1,"parent_sta":null,"stop_url":null,"zone_id":null,"stop_id":"Jan-71","FID_GTFS_Stops_02212017":221,"stop_desc":null,"stop_name":"Highland St & 59 AW","wheelchair":0,"Field_1":"Highland St & 59 AW"}},{"type":"Feature","geometry":{"type":"Point","coordinates":[-92.1707216201469,46.7483503531797]},"properties":{"name":"Highland St & 58 AW","altitudeMode":"clampToGround","stop_lat":46.748367,"stop_timez":null,"stop_code":"Jan-65","location_t":0,"stop_lon":-92.170737,"FID_route_3_Buffer":1,"parent_sta":null,"stop_url":null,"zone_id":null,"stop_id":"Jan-65","FID_GTFS_Stops_02212017":215,"stop_desc":null,"stop_name":"Highland St & 58 AW","wheelchair":0,"Field_1":"Highland St & 58 AW"}},{"type":"Feature","geometry":{"type":"Point","coordinates":[-92.1721166195501,46.7483703529783]},"properties":{"name":"Highland St & 59 AW","altitudeMode":"clampToGround","stop_lat":46.748387,"stop_timez":null,"stop_code":"Feb-71","location_t":0,"stop_lon":-92.172132,"FID_route_3_Buffer":1,"parent_sta":null,"stop_url":null,"zone_id":null,"stop_id":"Feb-71","FID_GTFS_Stops_02212017":979,"stop_desc":null,"stop_name":"Highland St & 59 AW","wheelchair":0,"Field_1":"Highland St & 59 AW"}},{"type":"Feature","geometry":{"type":"Point","coordinates":[-92.1694966206929,46.7483583528284]},"properties":{"name":"Highland St & 57 AW","altitudeMode":"clampToGround","stop_lat":46.748375,"stop_timez":null,"stop_code":"Jan-55","location_t":0,"stop_lon":-92.169512,"FID_route_3_Buffer":1,"parent_sta":null,"stop_url":null,"zone_id":null,"stop_id":"Jan-55","FID_GTFS_Stops_02212017":208,"stop_desc":null,"stop_name":"Highland St & 57 AW","wheelchair":0,"Field_1":"Highland St & 57 AW"}},{"type":"Feature","geometry":{"type":"Point","coordinates":[-92.1704486196499,46.7483773528732]},"properties":{"name":"Highland St & 58 AW","altitudeMode":"clampToGround","stop_lat":46.748394,"stop_timez":null,"stop_code":"Feb-65","location_t":0,"stop_lon":-92.170464,"FID_route_3_Buffer":1,"parent_sta":null,"stop_url":null,"zone_id":null,"stop_id":"Feb-65","FID_GTFS_Stops_02212017":975,"stop_desc":null,"stop_name":"Highland St & 58 AW","wheelchair":0,"Field_1":"Highland St & 58 AW"}},{"type":"Feature","geometry":{"type":"Point","coordinates":[-92.1554936281836,46.748675350872]},"properties":{"name":"Grand Ave & 43 AW","altitudeMode":"clampToGround","stop_lat":46.748692,"stop_timez":null,"stop_code":"Jan-42","location_t":0,"stop_lon":-92.155509,"FID_route_3_Buffer":1,"parent_sta":null,"stop_url":null,"zone_id":null,"stop_id":"Jan-42","FID_GTFS_Stops_02212017":135,"stop_desc":null,"stop_name":"Grand Ave & 43 AW","wheelchair":0,"Field_1":"Grand Ave & 43 AW"}},{"type":"Feature","geometry":{"type":"Point","coordinates":[-92.1551666289806,46.7489553506652]},"properties":{"name":"Grand Ave & 43 AW","altitudeMode":"clampToGround","stop_lat":46.748972,"stop_timez":null,"stop_code":"Feb-42","location_t":0,"stop_lon":-92.155182,"FID_route_3_Buffer":1,"parent_sta":null,"stop_url":null,"zone_id":null,"stop_id":"Feb-42","FID_GTFS_Stops_02212017":899,"stop_desc":null,"stop_name":"Grand Ave & 43 AW","wheelchair":0,"Field_1":"Grand Ave & 43 AW"}},{"type":"Feature","geometry":{"type":"Point","coordinates":[-92.1542396298101,46.7495683503731]},"properties":{"name":"Grand Ave & 42 AW","altitudeMode":"clampToGround","stop_lat":46.749585,"stop_timez":null,"stop_code":"Jan-39","location_t":0,"stop_lon":-92.154255,"FID_route_3_Buffer":1,"parent_sta":null,"stop_url":null,"zone_id":null,"stop_id":"Jan-39","FID_GTFS_Stops_02212017":132,"stop_desc":null,"stop_name":"Grand Ave & 42 AW","wheelchair":0,"Field_1":"Grand Ave & 42 AW"}},{"type":"Feature","geometry":{"type":"Point","coordinates":[-92.1886446093807,46.7498953550816]},"properties":{"name":"Vinland St & Skyline Blvd","altitudeMode":"clampToGround","stop_lat":46.749912,"stop_timez":null,"stop_code":"Jan-30","location_t":0,"stop_lon":-92.18866,"FID_route_3_Buffer":1,"parent_sta":null,"stop_url":null,"zone_id":null,"stop_id":"Jan-30","FID_GTFS_Stops_02212017":606,"stop_desc":null,"stop_name":"Vinland St & Skyline Blvd","wheelchair":0,"Field_1":"Vinland St & Skyline Blvd"}},{"type":"Feature","geometry":{"type":"Point","coordinates":[-92.1885276092228,46.7499853554258]},"properties":{"name":"Vinland St & Skyline Blvd","altitudeMode":"clampToGround","stop_lat":46.750002,"stop_timez":null,"stop_code":"Feb-30","location_t":0,"stop_lon":-92.188543,"FID_route_3_Buffer":1,"parent_sta":null,"stop_url":null,"zone_id":null,"stop_id":"Feb-30","FID_GTFS_Stops_02212017":1343,"stop_desc":null,"stop_name":"Vinland St & Skyline Blvd","wheelchair":0,"Field_1":"Vinland St & Skyline Blvd"}},{"type":"Feature","geometry":{"type":"Point","coordinates":[-92.1539916295646,46.7497843504327]},"properties":{"name":"Grand Ave & 42 AW","altitudeMode":"clampToGround","stop_lat":46.749801,"stop_timez":null,"stop_code":"Feb-39","location_t":0,"stop_lon":-92.154007,"FID_route_3_Buffer":1,"parent_sta":null,"stop_url":null,"zone_id":null,"stop_id":"Feb-39","FID_GTFS_Stops_02212017":896,"stop_desc":null,"stop_name":"Grand Ave & 42 AW","wheelchair":0,"Field_1":"Grand Ave & 42 AW"}},{"type":"Feature","geometry":{"type":"Point","coordinates":[-92.1528026303216,46.7505773500313]},"properties":{"name":"Grand Ave & 41 AW","altitudeMode":"clampToGround","stop_lat":46.750594,"stop_timez":null,"stop_code":"Jan-36","location_t":0,"stop_lon":-92.152818,"FID_route_3_Buffer":1,"parent_sta":null,"stop_url":null,"zone_id":null,"stop_id":"Jan-36","FID_GTFS_Stops_02212017":129,"stop_desc":null,"stop_name":"Grand Ave & 41 AW","wheelchair":0,"Field_1":"Grand Ave & 41 AW"}},{"type":"Feature","geometry":{"type":"Point","coordinates":[-92.1526196295818,46.7507303496168]},"properties":{"name":"Grand Ave & 41 AW","altitudeMode":"clampToGround","stop_lat":46.750747,"stop_timez":null,"stop_code":"Feb-36","location_t":0,"stop_lon":-92.152635,"FID_route_3_Buffer":1,"parent_sta":null,"stop_url":null,"zone_id":null,"stop_id":"Feb-36","FID_GTFS_Stops_02212017":893,"stop_desc":null,"stop_name":"Grand Ave & 41 AW","wheelchair":0,"Field_1":"Grand Ave & 41 AW"}},{"type":"Feature","geometry":{"type":"Point","coordinates":[-92.1514706301359,46.7515243496027]},"properties":{"name":"Grand Ave & 40 AW","altitudeMode":"clampToGround","stop_lat":46.751541,"stop_timez":null,"stop_code":"Jan-55","location_t":0,"stop_lon":-92.151486,"FID_route_3_Buffer":1,"parent_sta":null,"stop_url":null,"zone_id":null,"stop_id":"Jan-55","FID_GTFS_Stops_02212017":738,"stop_desc":null,"stop_name":"Grand Ave & 40 AW","wheelchair":0,"Field_1":"Grand Ave & 40 AW"}},{"type":"Feature","geometry":{"type":"Point","coordinates":[-92.1512616304598,46.7517043489385]},"properties":{"name":"Grand Ave & 40 AW","altitudeMode":"clampToGround","stop_lat":46.751721,"stop_timez":null,"stop_code":"Feb-55","location_t":0,"stop_lon":-92.151277,"FID_route_3_Buffer":1,"parent_sta":null,"stop_url":null,"zone_id":null,"stop_id":"Feb-55","FID_GTFS_Stops_02212017":1482,"stop_desc":null,"stop_name":"Grand Ave & 40 AW","wheelchair":0,"Field_1":"Grand Ave & 40 AW"}},{"type":"Feature","geometry":{"type":"Point","coordinates":[-92.1501906302501,46.752416349367]},"properties":{"name":"Grand Ave & 39 AW","altitudeMode":"clampToGround","stop_lat":46.752433,"stop_timez":null,"stop_code":"Jan-99","location_t":0,"stop_lon":-92.150206,"FID_route_3_Buffer":1,"parent_sta":null,"stop_url":null,"zone_id":null,"stop_id":"Jan-99","FID_GTFS_Stops_02212017":106,"stop_desc":null,"stop_name":"Grand Ave & 39 AW","wheelchair":0,"Field_1":"Grand Ave & 39 AW"}},{"type":"Feature","geometry":{"type":"Point","coordinates":[-92.1499556311001,46.7526233488393]},"properties":{"name":"Grand Ave & 39 AW","altitudeMode":"clampToGround","stop_lat":46.75264,"stop_timez":null,"stop_code":"Feb-99","location_t":0,"stop_lon":-92.149971,"FID_route_3_Buffer":1,"parent_sta":null,"stop_url":null,"zone_id":null,"stop_id":"Feb-99","FID_GTFS_Stops_02212017":878,"stop_desc":null,"stop_name":"Grand Ave & 39 AW","wheelchair":0,"Field_1":"Grand Ave & 39 AW"}},{"type":"Feature","geometry":{"type":"Point","coordinates":[-92.1488576314326,46.7533533487537]},"properties":{"name":"Grand Ave & 38 AW","altitudeMode":"clampToGround","stop_lat":46.75337,"stop_timez":null,"stop_code":"Jan-96","location_t":0,"stop_lon":-92.148873,"FID_route_3_Buffer":1,"parent_sta":null,"stop_url":null,"zone_id":null,"stop_id":"Jan-96","FID_GTFS_Stops_02212017":105,"stop_desc":null,"stop_name":"Grand Ave & 38 AW","wheelchair":0,"Field_1":"Grand Ave & 38 AW"}},{"type":"Feature","geometry":{"type":"Point","coordinates":[-92.1486226308573,46.7535613488641]},"properties":{"name":"Grand Ave & 38 AW","altitudeMode":"clampToGround","stop_lat":46.753578,"stop_timez":null,"stop_code":"Feb-96","location_t":0,"stop_lon":-92.148638,"FID_route_3_Buffer":1,"parent_sta":null,"stop_url":null,"zone_id":null,"stop_id":"Feb-96","FID_GTFS_Stops_02212017":876,"stop_desc":null,"stop_name":"Grand Ave & 38 AW","wheelchair":0,"Field_1":"Grand Ave & 38 AW"}},{"type":"Feature","geometry":{"type":"Point","coordinates":[-92.147368632349,46.7544083477321]},"properties":{"name":"Grand Ave & 37 AW","altitudeMode":"clampToGround","stop_lat":46.754425,"stop_timez":null,"stop_code":"Jan-94","location_t":0,"stop_lon":-92.147384,"FID_route_3_Buffer":1,"parent_sta":null,"stop_url":null,"zone_id":null,"stop_id":"Jan-94","FID_GTFS_Stops_02212017":104,"stop_desc":null,"stop_name":"Grand Ave & 37 AW","wheelchair":0,"Field_1":"Grand Ave & 37 AW"}},{"type":"Feature","geometry":{"type":"Point","coordinates":[-92.1471726312882,46.7545793480769]},"properties":{"name":"Grand Ave & 37 AW","altitudeMode":"clampToGround","stop_lat":46.754596,"stop_timez":null,"stop_code":"Feb-94","location_t":0,"stop_lon":-92.147188,"FID_route_3_Buffer":1,"parent_sta":null,"stop_url":null,"zone_id":null,"stop_id":"Feb-94","FID_GTFS_Stops_02212017":875,"stop_desc":null,"stop_name":"Grand Ave & 37 AW","wheelchair":0,"Field_1":"Grand Ave & 37 AW"}},{"type":"Feature","geometry":{"type":"Point","coordinates":[-92.1465326318306,46.7549853474633]},"properties":{"name":"Grand Ave & 36 AW","altitudeMode":"clampToGround","stop_lat":46.755002,"stop_timez":null,"stop_code":"Jan-93","location_t":0,"stop_lon":-92.146548,"FID_route_3_Buffer":1,"parent_sta":null,"stop_url":null,"zone_id":null,"stop_id":"Jan-93","FID_GTFS_Stops_02212017":103,"stop_desc":null,"stop_name":"Grand Ave & 36 AW","wheelchair":0,"Field_1":"Grand Ave & 36 AW"}},{"type":"Feature","geometry":{"type":"Point","coordinates":[-92.1455926318958,46.7556433476165]},"properties":{"name":"Grand Ave & 35 AW","altitudeMode":"clampToGround","stop_lat":46.75566,"stop_timez":null,"stop_code":"Jan-91","location_t":0,"stop_lon":-92.145608,"FID_route_3_Buffer":1,"parent_sta":null,"stop_url":null,"zone_id":null,"stop_id":"Jan-91","FID_GTFS_Stops_02212017":101,"stop_desc":null,"stop_name":"Grand Ave & 35 AW","wheelchair":0,"Field_1":"Grand Ave & 35 AW"}},{"type":"Feature","geometry":{"type":"Point","coordinates":[-92.1455266327878,46.7557423473821]},"properties":{"name":"Grand Ave & 35 AW","altitudeMode":"clampToGround","stop_lat":46.755759,"stop_timez":null,"stop_code":"Feb-91","location_t":0,"stop_lon":-92.145542,"FID_route_3_Buffer":1,"parent_sta":null,"stop_url":null,"zone_id":null,"stop_id":"Feb-91","FID_GTFS_Stops_02212017":873,"stop_desc":null,"stop_name":"Grand Ave & 35 AW","wheelchair":0,"Field_1":"Grand Ave & 35 AW"}},{"type":"Feature","geometry":{"type":"Point","coordinates":[-92.1443246333202,46.756571347026]},"properties":{"name":"Grand Ave & 34 AW","altitudeMode":"clampToGround","stop_lat":46.756588,"stop_timez":null,"stop_code":"Feb-88","location_t":0,"stop_lon":-92.14434,"FID_route_3_Buffer":1,"parent_sta":null,"stop_url":null,"zone_id":null,"stop_id":"Feb-88","FID_GTFS_Stops_02212017":870,"stop_desc":null,"stop_name":"Grand Ave & 34 AW","wheelchair":0,"Field_1":"Grand Ave & 34 AW"}},{"type":"Feature","geometry":{"type":"Point","coordinates":[-92.1434116328525,46.7569763464315]},"properties":{"name":"Carlton Ave & Grand Ave","altitudeMode":"clampToGround","stop_lat":46.756993,"stop_timez":null,"stop_code":"4-0029","location_t":0,"stop_lon":-92.143427,"FID_route_3_Buffer":1,"parent_sta":null,"stop_url":null,"zone_id":null,"stop_id":"4-0029","FID_GTFS_Stops_02212017":1534,"stop_desc":null,"stop_name":"Carlton Ave & Grand Ave","wheelchair":0,"Field_1":"Carlton Ave & Grand Ave"}},{"type":"Feature","geometry":{"type":"Point","coordinates":[-92.1427046329999,46.7577613462632]},"properties":{"name":"Grand Ave & 33 AW","altitudeMode":"clampToGround","stop_lat":46.757778,"stop_timez":null,"stop_code":"Feb-86","location_t":0,"stop_lon":-92.14272,"FID_route_3_Buffer":1,"parent_sta":null,"stop_url":null,"zone_id":null,"stop_id":"Feb-86","FID_GTFS_Stops_02212017":868,"stop_desc":null,"stop_name":"Grand Ave & 33 AW","wheelchair":0,"Field_1":"Grand Ave & 33 AW"}},{"type":"Feature","geometry":{"type":"Point","coordinates":[-92.1425086340314,46.7578693468204]},"properties":{"name":"03 St @ 3302","altitudeMode":"clampToGround","stop_lat":46.757886,"stop_timez":null,"stop_code":"Jan-90","location_t":0,"stop_lon":-92.142524,"FID_route_3_Buffer":1,"parent_sta":null,"stop_url":null,"zone_id":null,"stop_id":"Jan-90","FID_GTFS_Stops_02212017":716,"stop_desc":null,"stop_name":"03 St @ 3302","wheelchair":0,"Field_1":"03 St @ 3302"}},{"type":"Feature","geometry":{"type":"Point","coordinates":[-92.1414116335324,46.7587433460493]},"properties":{"name":"03 St & Pacific Ave","altitudeMode":"clampToGround","stop_lat":46.75876,"stop_timez":null,"stop_code":"Feb-69","location_t":0,"stop_lon":-92.141427,"FID_route_3_Buffer":1,"parent_sta":null,"stop_url":null,"zone_id":null,"stop_id":"Feb-69","FID_GTFS_Stops_02212017":1304,"stop_desc":null,"stop_name":"03 St & Pacific Ave","wheelchair":0,"Field_1":"03 St & Pacific Ave"}},{"type":"Feature","geometry":{"type":"Point","coordinates":[-92.1412416343397,46.7588153455897]},"properties":{"name":"03 St & Chesnut St","altitudeMode":"clampToGround","stop_lat":46.758832,"stop_timez":null,"stop_code":"Jan-57","location_t":0,"stop_lon":-92.141257,"FID_route_3_Buffer":1,"parent_sta":null,"stop_url":null,"zone_id":null,"stop_id":"Jan-57","FID_GTFS_Stops_02212017":683,"stop_desc":null,"stop_name":"03 St & Chesnut St","wheelchair":0,"Field_1":"03 St & Chesnut St"}},{"type":"Feature","geometry":{"type":"Point","coordinates":[-92.1404446346288,46.7593383459803]},"properties":{"name":"03 St & Vernon St","altitudeMode":"clampToGround","stop_lat":46.759355,"stop_timez":null,"stop_code":"Jan-91","location_t":0,"stop_lon":-92.14046,"FID_route_3_Buffer":1,"parent_sta":null,"stop_url":null,"zone_id":null,"stop_id":"Jan-91","FID_GTFS_Stops_02212017":717,"stop_desc":null,"stop_name":"03 St & Vernon St","wheelchair":0,"Field_1":"03 St & Vernon St"}},{"type":"Feature","geometry":{"type":"Point","coordinates":[-92.1402226346221,46.7595003459025]},"properties":{"name":"03 St & Michigan Ave","altitudeMode":"clampToGround","stop_lat":46.759517,"stop_timez":null,"stop_code":"Feb-85","location_t":0,"stop_lon":-92.140238,"FID_route_3_Buffer":1,"parent_sta":null,"stop_url":null,"zone_id":null,"stop_id":"Feb-85","FID_GTFS_Stops_02212017":1258,"stop_desc":null,"stop_name":"03 St & Michigan Ave","wheelchair":0,"Field_1":"03 St & Michigan Ave"}},{"type":"Feature","geometry":{"type":"Point","coordinates":[-92.1394126346431,46.7600503451858]},"properties":{"name":"03 St & Restormel St","altitudeMode":"clampToGround","stop_lat":46.760067,"stop_timez":null,"stop_code":"Jan-92","location_t":0,"stop_lon":-92.139428,"FID_route_3_Buffer":1,"parent_sta":null,"stop_url":null,"zone_id":null,"stop_id":"Jan-92","FID_GTFS_Stops_02212017":718,"stop_desc":null,"stop_name":"03 St & Restormel St","wheelchair":0,"Field_1":"03 St & Restormel St"}},{"type":"Feature","geometry":{"type":"Point","coordinates":[-92.1392296341984,46.7602033456662]},"properties":{"name":"03 St & Restormel St","altitudeMode":"clampToGround","stop_lat":46.76022,"stop_timez":null,"stop_code":"Feb-18","location_t":0,"stop_lon":-92.139245,"FID_route_3_Buffer":1,"parent_sta":null,"stop_url":null,"zone_id":null,"stop_id":"Feb-18","FID_GTFS_Stops_02212017":1333,"stop_desc":null,"stop_name":"03 St & Restormel St","wheelchair":0,"Field_1":"03 St & Restormel St"}},{"type":"Feature","geometry":{"type":"Point","coordinates":[-92.1385246352898,46.7606453451077]},"properties":{"name":"03 St & Devonshire St","altitudeMode":"clampToGround","stop_lat":46.760662,"stop_timez":null,"stop_code":"Jan-17","location_t":0,"stop_lon":-92.13854,"FID_route_3_Buffer":1,"parent_sta":null,"stop_url":null,"zone_id":null,"stop_id":"Jan-17","FID_GTFS_Stops_02212017":425,"stop_desc":null,"stop_name":"03 St & Devonshire St","wheelchair":0,"Field_1":"03 St & Devonshire St"}},{"type":"Feature","geometry":{"type":"Point","coordinates":[-92.1383146346295,46.7608433447438]},"properties":{"name":"03 St & Devonshire St","altitudeMode":"clampToGround","stop_lat":46.76086,"stop_timez":null,"stop_code":"Feb-17","location_t":0,"stop_lon":-92.13833,"FID_route_3_Buffer":1,"parent_sta":null,"stop_url":null,"zone_id":null,"stop_id":"Feb-17","FID_GTFS_Stops_02212017":1174,"stop_desc":null,"stop_name":"03 St & Devonshire St","wheelchair":0,"Field_1":"03 St & Devonshire St"}},{"type":"Feature","geometry":{"type":"Point","coordinates":[-92.1377796355934,46.7612133443933]},"properties":{"name":"03 St & 29 AW","altitudeMode":"clampToGround","stop_lat":46.76123,"stop_timez":null,"stop_code":"Jan-49","location_t":0,"stop_lon":-92.137795,"FID_route_3_Buffer":1,"parent_sta":null,"stop_url":null,"zone_id":null,"stop_id":"Jan-49","FID_GTFS_Stops_02212017":83,"stop_desc":null,"stop_name":"03 St & 29 AW","wheelchair":0,"Field_1":"03 St & 29 AW"}},{"type":"Feature","geometry":{"type":"Point","coordinates":[-92.1376486352029,46.7613483451326]},"properties":{"name":"03 St & 29 AW","altitudeMode":"clampToGround","stop_lat":46.761365,"stop_timez":null,"stop_code":"Feb-49","location_t":0,"stop_lon":-92.137664,"FID_route_3_Buffer":1,"parent_sta":null,"stop_url":null,"zone_id":null,"stop_id":"Feb-49","FID_GTFS_Stops_02212017":845,"stop_desc":null,"stop_name":"03 St & 29 AW","wheelchair":0,"Field_1":"03 St & 29 AW"}},{"type":"Feature","geometry":{"type":"Point","coordinates":[-92.1364336363553,46.7621773442182]},"properties":{"name":"03 St & 28 AW","altitudeMode":"clampToGround","stop_lat":46.762194,"stop_timez":null,"stop_code":"Jan-45","location_t":0,"stop_lon":-92.136449,"FID_route_3_Buffer":1,"parent_sta":null,"stop_url":null,"zone_id":null,"stop_id":"Jan-45","FID_GTFS_Stops_02212017":80,"stop_desc":null,"stop_name":"03 St & 28 AW","wheelchair":0,"Field_1":"03 St & 28 AW"}},{"type":"Feature","geometry":{"type":"Point","coordinates":[-92.1362376353219,46.7623763446644]},"properties":{"name":"03 St & 28 AW","altitudeMode":"clampToGround","stop_lat":46.762393,"stop_timez":null,"stop_code":"Feb-45","location_t":0,"stop_lon":-92.136253,"FID_route_3_Buffer":1,"parent_sta":null,"stop_url":null,"zone_id":null,"stop_id":"Feb-45","FID_GTFS_Stops_02212017":842,"stop_desc":null,"stop_name":"03 St & 28 AW","wheelchair":0,"Field_1":"03 St & 28 AW"}},{"type":"Feature","geometry":{"type":"Point","coordinates":[-92.1285556399128,46.7628073429519]},"properties":{"name":"DTA Garage","altitudeMode":"clampToGround","stop_lat":46.762824,"stop_timez":null,"stop_code":"0-E","location_t":0,"stop_lon":-92.128571,"FID_route_3_Buffer":1,"parent_sta":null,"stop_url":null,"zone_id":null,"stop_id":"0-E","FID_GTFS_Stops_02212017":0,"stop_desc":null,"stop_name":"DTA Garage","wheelchair":0,"Field_1":"DTA Garage"}},{"type":"Feature","geometry":{"type":"Point","coordinates":[-92.1352706360457,46.7630793440769]},"properties":{"name":"03 St & 27 AW","altitudeMode":"clampToGround","stop_lat":46.763096,"stop_timez":null,"stop_code":"Jan-42","location_t":0,"stop_lon":-92.135286,"FID_route_3_Buffer":1,"parent_sta":null,"stop_url":null,"zone_id":null,"stop_id":"Jan-42","FID_GTFS_Stops_02212017":77,"stop_desc":null,"stop_name":"03 St & 27 AW","wheelchair":0,"Field_1":"03 St & 27 AW"}},{"type":"Feature","geometry":{"type":"Point","coordinates":[-92.1350216367341,46.7633133438783]},"properties":{"name":"03 St & 27 AW","altitudeMode":"clampToGround","stop_lat":46.76333,"stop_timez":null,"stop_code":"Feb-42","location_t":0,"stop_lon":-92.135037,"FID_route_3_Buffer":1,"parent_sta":null,"stop_url":null,"zone_id":null,"stop_id":"Feb-42","FID_GTFS_Stops_02212017":839,"stop_desc":null,"stop_name":"03 St & 27 AW","wheelchair":0,"Field_1":"03 St & 27 AW"}},{"type":"Feature","geometry":{"type":"Point","coordinates":[-92.1340286366021,46.7640163431615]},"properties":{"name":"03 St & 26 AW","altitudeMode":"clampToGround","stop_lat":46.764033,"stop_timez":null,"stop_code":"Jan-39","location_t":0,"stop_lon":-92.134044,"FID_route_3_Buffer":1,"parent_sta":null,"stop_url":null,"zone_id":null,"stop_id":"Jan-39","FID_GTFS_Stops_02212017":74,"stop_desc":null,"stop_name":"03 St & 26 AW","wheelchair":0,"Field_1":"03 St & 26 AW"}},{"type":"Feature","geometry":{"type":"Point","coordinates":[-92.1337676370033,46.7642953434715]},"properties":{"name":"03 St & 26 AW","altitudeMode":"clampToGround","stop_lat":46.764312,"stop_timez":null,"stop_code":"Feb-39","location_t":0,"stop_lon":-92.133783,"FID_route_3_Buffer":1,"parent_sta":null,"stop_url":null,"zone_id":null,"stop_id":"Feb-39","FID_GTFS_Stops_02212017":836,"stop_desc":null,"stop_name":"03 St & 26 AW","wheelchair":0,"Field_1":"03 St & 26 AW"}},{"type":"Feature","geometry":{"type":"Point","coordinates":[-92.132865636869,46.7649353430425]},"properties":{"name":"03 St & 25 AW","altitudeMode":"clampToGround","stop_lat":46.764952,"stop_timez":null,"stop_code":"Jan-36","location_t":0,"stop_lon":-92.132881,"FID_route_3_Buffer":1,"parent_sta":null,"stop_url":null,"zone_id":null,"stop_id":"Jan-36","FID_GTFS_Stops_02212017":71,"stop_desc":null,"stop_name":"03 St & 25 AW","wheelchair":0,"Field_1":"03 St & 25 AW"}},{"type":"Feature","geometry":{"type":"Point","coordinates":[-92.1325126372308,46.7652873431187]},"properties":{"name":"03 St & 25 AW","altitudeMode":"clampToGround","stop_lat":46.765304,"stop_timez":null,"stop_code":"Feb-36","location_t":0,"stop_lon":-92.132528,"FID_route_3_Buffer":1,"parent_sta":null,"stop_url":null,"zone_id":null,"stop_id":"Feb-36","FID_GTFS_Stops_02212017":833,"stop_desc":null,"stop_name":"03 St & 25 AW","wheelchair":0,"Field_1":"03 St & 25 AW"}},{"type":"Feature","geometry":{"type":"Point","coordinates":[-92.1315976373513,46.7659273429589]},"properties":{"name":"03 St & 24 AW","altitudeMode":"clampToGround","stop_lat":46.765944,"stop_timez":null,"stop_code":"Jan-26","location_t":0,"stop_lon":-92.131613,"FID_route_3_Buffer":1,"parent_sta":null,"stop_url":null,"zone_id":null,"stop_id":"Jan-26","FID_GTFS_Stops_02212017":68,"stop_desc":null,"stop_name":"03 St & 24 AW","wheelchair":0,"Field_1":"03 St & 24 AW"}},{"type":"Feature","geometry":{"type":"Point","coordinates":[-92.1313216379422,46.7661973424873]},"properties":{"name":"03 St & 24 AW","altitudeMode":"clampToGround","stop_lat":46.766214,"stop_timez":null,"stop_code":"Feb-26","location_t":0,"stop_lon":-92.131337,"FID_route_3_Buffer":1,"parent_sta":null,"stop_url":null,"zone_id":null,"stop_id":"Feb-26","FID_GTFS_Stops_02212017":830,"stop_desc":null,"stop_name":"03 St & 24 AW","wheelchair":0,"Field_1":"03 St & 24 AW"}},{"type":"Feature","geometry":{"type":"Point","coordinates":[-92.1303686381673,46.7669003424969]},"properties":{"name":"03 St & 23 AW","altitudeMode":"clampToGround","stop_lat":46.766917,"stop_timez":null,"stop_code":"Jan-14","location_t":0,"stop_lon":-92.130384,"FID_route_3_Buffer":1,"parent_sta":null,"stop_url":null,"zone_id":null,"stop_id":"Jan-14","FID_GTFS_Stops_02212017":59,"stop_desc":null,"stop_name":"03 St & 23 AW","wheelchair":0,"Field_1":"03 St & 23 AW"}},{"type":"Feature","geometry":{"type":"Point","coordinates":[-92.1243276415114,46.7670283412284]},"properties":{"name":"Superior St & 21 AW - OB","altitudeMode":"clampToGround","stop_lat":46.767045,"stop_timez":null,"stop_code":"Feb-30","location_t":0,"stop_lon":-92.124343,"FID_route_3_Buffer":1,"parent_sta":null,"stop_url":null,"zone_id":null,"stop_id":"Feb-30","FID_GTFS_Stops_02212017":1493,"stop_desc":null,"stop_name":"Superior St & 21 AW - OB","wheelchair":0,"Field_1":"Superior St & 21 AW - OB"}},{"type":"Feature","geometry":{"type":"Point","coordinates":[-92.1245646418016,46.7671003409914]},"properties":{"name":"21 AW & Superior St","altitudeMode":"clampToGround","stop_lat":46.767117,"stop_timez":null,"stop_code":"Jan-08","location_t":0,"stop_lon":-92.12458,"FID_route_3_Buffer":1,"parent_sta":null,"stop_url":null,"zone_id":null,"stop_id":"Jan-08","FID_GTFS_Stops_02212017":54,"stop_desc":null,"stop_name":"21 AW & Superior St","wheelchair":0,"Field_1":"21 AW & Superior St"}},{"type":"Feature","geometry":{"type":"Point","coordinates":[-92.1301076378731,46.767180342253]},"properties":{"name":"03 St & 23 AW","altitudeMode":"clampToGround","stop_lat":46.767197,"stop_timez":null,"stop_code":"Feb-14","location_t":0,"stop_lon":-92.130123,"FID_route_3_Buffer":1,"parent_sta":null,"stop_url":null,"zone_id":null,"stop_id":"Feb-14","FID_GTFS_Stops_02212017":821,"stop_desc":null,"stop_name":"03 St & 23 AW","wheelchair":0,"Field_1":"03 St & 23 AW"}},{"type":"Feature","geometry":{"type":"Point","coordinates":[-92.1247476418132,46.7672543409848]},"properties":{"name":"21 AW & Superior St","altitudeMode":"clampToGround","stop_lat":46.767271,"stop_timez":null,"stop_code":"Feb-08","location_t":0,"stop_lon":-92.124763,"FID_route_3_Buffer":1,"parent_sta":null,"stop_url":null,"zone_id":null,"stop_id":"Feb-08","FID_GTFS_Stops_02212017":816,"stop_desc":null,"stop_name":"21 AW & Superior St","wheelchair":0,"Field_1":"21 AW & Superior St"}},{"type":"Feature","geometry":{"type":"Point","coordinates":[-92.125567641106,46.7676973413017]},"properties":{"name":"21 AW & 01 St","altitudeMode":"clampToGround","stop_lat":46.767714,"stop_timez":null,"stop_code":"Jan-05","location_t":0,"stop_lon":-92.125583,"FID_route_3_Buffer":1,"parent_sta":null,"stop_url":null,"zone_id":null,"stop_id":"Jan-05","FID_GTFS_Stops_02212017":51,"stop_desc":null,"stop_name":"21 AW & 01 St","wheelchair":0,"Field_1":"21 AW & 01 St"}},{"type":"Feature","geometry":{"type":"Point","coordinates":[-92.1233246416705,46.7677393412002]},"properties":{"name":"Superior St & 20 AW","altitudeMode":"clampToGround","stop_lat":46.767756,"stop_timez":null,"stop_code":"Jan-84","location_t":0,"stop_lon":-92.12334,"FID_route_3_Buffer":1,"parent_sta":null,"stop_url":null,"zone_id":null,"stop_id":"Jan-84","FID_GTFS_Stops_02212017":32,"stop_desc":null,"stop_name":"Superior St & 20 AW","wheelchair":0,"Field_1":"Superior St & 20 AW"}},{"type":"Feature","geometry":{"type":"Point","coordinates":[-92.1255936404867,46.7677883409144]},"properties":{"name":"21 AW & 01 St","altitudeMode":"clampToGround","stop_lat":46.767805,"stop_timez":null,"stop_code":"Feb-05","location_t":0,"stop_lon":-92.125609,"FID_route_3_Buffer":1,"parent_sta":null,"stop_url":null,"zone_id":null,"stop_id":"Feb-05","FID_GTFS_Stops_02212017":813,"stop_desc":null,"stop_name":"21 AW & 01 St","wheelchair":0,"Field_1":"21 AW & 01 St"}},{"type":"Feature","geometry":{"type":"Point","coordinates":[-92.1291016384814,46.767856341527]},"properties":{"name":"03 St & 22 AW","altitudeMode":"clampToGround","stop_lat":46.767873,"stop_timez":null,"stop_code":"Jan-11","location_t":0,"stop_lon":-92.129117,"FID_route_3_Buffer":1,"parent_sta":null,"stop_url":null,"zone_id":null,"stop_id":"Jan-11","FID_GTFS_Stops_02212017":56,"stop_desc":null,"stop_name":"03 St & 22 AW","wheelchair":0,"Field_1":"03 St & 22 AW"}},{"type":"Feature","geometry":{"type":"Point","coordinates":[-92.1229716415538,46.7680473407842]},"properties":{"name":"Superior St & 20 AW","altitudeMode":"clampToGround","stop_lat":46.768064,"stop_timez":null,"stop_code":"Feb-84","location_t":0,"stop_lon":-92.122987,"FID_route_3_Buffer":1,"parent_sta":null,"stop_url":null,"zone_id":null,"stop_id":"Feb-84","FID_GTFS_Stops_02212017":798,"stop_desc":null,"stop_name":"Superior St & 20 AW","wheelchair":0,"Field_1":"Superior St & 20 AW"}},{"type":"Feature","geometry":{"type":"Point","coordinates":[-92.1288396379735,46.7681173415486]},"properties":{"name":"03 St & 22 AW","altitudeMode":"clampToGround","stop_lat":46.768134,"stop_timez":null,"stop_code":"Feb-11","location_t":0,"stop_lon":-92.128855,"FID_route_3_Buffer":1,"parent_sta":null,"stop_url":null,"zone_id":null,"stop_id":"Feb-11","FID_GTFS_Stops_02212017":818,"stop_desc":null,"stop_name":"03 St & 22 AW","wheelchair":0,"Field_1":"03 St & 22 AW"}},{"type":"Feature","geometry":{"type":"Point","coordinates":[-92.126621640133,46.7683673409471]},"properties":{"name":"21 AW & 02 St","altitudeMode":"clampToGround","stop_lat":46.768384,"stop_timez":null,"stop_code":"Jan-06","location_t":0,"stop_lon":-92.126637,"FID_route_3_Buffer":1,"parent_sta":null,"stop_url":null,"zone_id":null,"stop_id":"Jan-06","FID_GTFS_Stops_02212017":52,"stop_desc":null,"stop_name":"21 AW & 02 St","wheelchair":0,"Field_1":"21 AW & 02 St"}},{"type":"Feature","geometry":{"type":"Point","coordinates":[-92.1265306404193,46.7683673411569]},"properties":{"name":"21 AW & 02 St","altitudeMode":"clampToGround","stop_lat":46.768384,"stop_timez":null,"stop_code":"Feb-06","location_t":0,"stop_lon":-92.126546,"FID_route_3_Buffer":1,"parent_sta":null,"stop_url":null,"zone_id":null,"stop_id":"Feb-06","FID_GTFS_Stops_02212017":814,"stop_desc":null,"stop_name":"21 AW & 02 St","wheelchair":0,"Field_1":"21 AW & 02 St"}},{"type":"Feature","geometry":{"type":"Point","coordinates":[-92.122134642049,46.7686313404086]},"properties":{"name":"Superior St & 19 AW","altitudeMode":"clampToGround","stop_lat":46.768648,"stop_timez":null,"stop_code":"Jan-75","location_t":0,"stop_lon":-92.12215,"FID_route_3_Buffer":1,"parent_sta":null,"stop_url":null,"zone_id":null,"stop_id":"Jan-75","FID_GTFS_Stops_02212017":26,"stop_desc":null,"stop_name":"Superior St & 19 AW","wheelchair":0,"Field_1":"Superior St & 19 AW"}},{"type":"Feature","geometry":{"type":"Point","coordinates":[-92.127846639368,46.7687933413833]},"properties":{"name":"03 St & 21 AW","altitudeMode":"clampToGround","stop_lat":46.76881,"stop_timez":null,"stop_code":"Jan-07","location_t":0,"stop_lon":-92.127862,"FID_route_3_Buffer":1,"parent_sta":null,"stop_url":null,"zone_id":null,"stop_id":"Jan-07","FID_GTFS_Stops_02212017":53,"stop_desc":null,"stop_name":"03 St & 21 AW","wheelchair":0,"Field_1":"03 St & 21 AW"}},{"type":"Feature","geometry":{"type":"Point","coordinates":[-92.1272986395469,46.7688563408757]},"properties":{"name":"21 AW & 03 St","altitudeMode":"clampToGround","stop_lat":46.768873,"stop_timez":null,"stop_code":"Feb-07","location_t":0,"stop_lon":-92.127314,"FID_route_3_Buffer":1,"parent_sta":null,"stop_url":null,"zone_id":null,"stop_id":"Feb-07","FID_GTFS_Stops_02212017":815,"stop_desc":null,"stop_name":"21 AW & 03 St","wheelchair":0,"Field_1":"21 AW & 03 St"}},{"type":"Feature","geometry":{"type":"Point","coordinates":[-92.1208406432312,46.769614339774]},"properties":{"name":"Superior St & 18 AW","altitudeMode":"clampToGround","stop_lat":46.769631,"stop_timez":null,"stop_code":"Jan-67","location_t":0,"stop_lon":-92.120856,"FID_route_3_Buffer":1,"parent_sta":null,"stop_url":null,"zone_id":null,"stop_id":"Jan-67","FID_GTFS_Stops_02212017":18,"stop_desc":null,"stop_name":"Superior St & 18 AW","wheelchair":0,"Field_1":"Superior St & 18 AW"}},{"type":"Feature","geometry":{"type":"Point","coordinates":[-92.120490643524,46.7699173403294]},"properties":{"name":"Superior St & 18 AW","altitudeMode":"clampToGround","stop_lat":46.769934,"stop_timez":null,"stop_code":"Feb-67","location_t":0,"stop_lon":-92.120506,"FID_route_3_Buffer":1,"parent_sta":null,"stop_url":null,"zone_id":null,"stop_id":"Feb-67","FID_GTFS_Stops_02212017":785,"stop_desc":null,"stop_name":"Superior St & 18 AW","wheelchair":0,"Field_1":"Superior St & 18 AW"}},{"type":"Feature","geometry":{"type":"Point","coordinates":[-92.1189846437294,46.7710863392266]},"properties":{"name":"Superior St & Garfield Av","altitudeMode":"clampToGround","stop_lat":46.771103,"stop_timez":null,"stop_code":"Feb-39","location_t":0,"stop_lon":-92.119,"FID_route_3_Buffer":1,"parent_sta":null,"stop_url":null,"zone_id":null,"stop_id":"Feb-39","FID_GTFS_Stops_02212017":1188,"stop_desc":null,"stop_name":"Superior St & Garfield Av","wheelchair":0,"Field_1":"Superior St & Garfield Av"}},{"type":"Feature","geometry":{"type":"Point","coordinates":[-92.1184746431927,46.7714073392437]},"properties":{"name":"Superior & Garfield - west of","altitudeMode":"clampToGround","stop_lat":46.771424,"stop_timez":null,"stop_code":"1-7139W","location_t":0,"stop_lon":-92.11849,"FID_route_3_Buffer":1,"parent_sta":null,"stop_url":null,"zone_id":null,"stop_id":"1-7139W","FID_GTFS_Stops_02212017":440,"stop_desc":null,"stop_name":"Superior & Garfield - west of","wheelchair":0,"Field_1":"Superior & Garfield - west of"}},{"type":"Feature","geometry":{"type":"Point","coordinates":[-92.1178726435338,46.7718763385377]},"properties":{"name":"Superior St & Garfield Av","altitudeMode":"clampToGround","stop_lat":46.771893,"stop_timez":null,"stop_code":"Jan-39","location_t":0,"stop_lon":-92.117888,"FID_route_3_Buffer":1,"parent_sta":null,"stop_url":null,"zone_id":null,"stop_id":"Jan-39","FID_GTFS_Stops_02212017":439,"stop_desc":null,"stop_name":"Superior St & Garfield Av","wheelchair":0,"Field_1":"Superior St & Garfield Av"}},{"type":"Feature","geometry":{"type":"Point","coordinates":[-92.1174416442102,46.7722453388667]},"properties":{"name":"Superior St & 15 AW","altitudeMode":"clampToGround","stop_lat":46.772262,"stop_timez":null,"stop_code":"Feb-63","location_t":0,"stop_lon":-92.117457,"FID_route_3_Buffer":1,"parent_sta":null,"stop_url":null,"zone_id":null,"stop_id":"Feb-63","FID_GTFS_Stops_02212017":781,"stop_desc":null,"stop_name":"Superior St & 15 AW","wheelchair":0,"Field_1":"Superior St & 15 AW"}},{"type":"Feature","geometry":{"type":"Point","coordinates":[-92.1169316440951,46.7725793384877]},"properties":{"name":"Superior St & 15 AW","altitudeMode":"clampToGround","stop_lat":46.772596,"stop_timez":null,"stop_code":"Jan-63","location_t":0,"stop_lon":-92.116947,"FID_route_3_Buffer":1,"parent_sta":null,"stop_url":null,"zone_id":null,"stop_id":"Jan-63","FID_GTFS_Stops_02212017":14,"stop_desc":null,"stop_name":"Superior St & 15 AW","wheelchair":0,"Field_1":"Superior St & 15 AW"}},{"type":"Feature","geometry":{"type":"Point","coordinates":[-92.1124376454727,46.7750913375911]},"properties":{"name":"Superior St & Glen Pl","altitudeMode":"clampToGround","stop_lat":46.775108,"stop_timez":null,"stop_code":"Jan-47","location_t":0,"stop_lon":-92.112453,"FID_route_3_Buffer":1,"parent_sta":null,"stop_url":null,"zone_id":null,"stop_id":"Jan-47","FID_GTFS_Stops_02212017":445,"stop_desc":null,"stop_name":"Superior St & Glen Pl","wheelchair":0,"Field_1":"Superior St & Glen Pl"}},{"type":"Feature","geometry":{"type":"Point","coordinates":[-92.1124766456878,46.7751003368669]},"properties":{"name":"Superior St & Glen Pl","altitudeMode":"clampToGround","stop_lat":46.775117,"stop_timez":null,"stop_code":"Feb-47","location_t":0,"stop_lon":-92.112492,"FID_route_3_Buffer":1,"parent_sta":null,"stop_url":null,"zone_id":null,"stop_id":"Feb-47","FID_GTFS_Stops_02212017":1193,"stop_desc":null,"stop_name":"Superior St & Glen Pl","wheelchair":0,"Field_1":"Superior St & Glen Pl"}},{"type":"Feature","geometry":{"type":"Point","coordinates":[-92.1111436468562,46.7759383370511]},"properties":{"name":"Superior St & Jeno's Walk (I-35)","altitudeMode":"clampToGround","stop_lat":46.775955,"stop_timez":null,"stop_code":"Jan-93","location_t":0,"stop_lon":-92.111159,"FID_route_3_Buffer":1,"parent_sta":null,"stop_url":null,"zone_id":null,"stop_id":"Jan-93","FID_GTFS_Stops_02212017":719,"stop_desc":null,"stop_name":"Superior St & Jeno's Walk (I-35)","wheelchair":0,"Field_1":"Superior St & Jeno's Walk (I-35)"}},{"type":"Feature","geometry":{"type":"Point","coordinates":[-92.1111816470527,46.7761283367454]},"properties":{"name":"Superior St & Jeno's Walk","altitudeMode":"clampToGround","stop_lat":46.776145,"stop_timez":null,"stop_code":"Feb-93","location_t":0,"stop_lon":-92.111197,"FID_route_3_Buffer":1,"parent_sta":null,"stop_url":null,"zone_id":null,"stop_id":"Feb-93","FID_GTFS_Stops_02212017":1454,"stop_desc":null,"stop_name":"Superior St & Jeno's Walk","wheelchair":0,"Field_1":"Superior St & Jeno's Walk"}},{"type":"Feature","geometry":{"type":"Point","coordinates":[-92.1067466476811,46.7804103351068]},"properties":{"name":"Superior St & 07 AW - Len","altitudeMode":"clampToGround","stop_lat":46.780427,"stop_timez":null,"stop_code":"4-0004","location_t":0,"stop_lon":-92.106762,"FID_route_3_Buffer":1,"parent_sta":null,"stop_url":null,"zone_id":null,"stop_id":"4-0004","FID_GTFS_Stops_02212017":1521,"stop_desc":null,"stop_name":"Superior St & 07 AW - Len","wheelchair":0,"Field_1":"Superior St & 07 AW - Len"}},{"type":"Feature","geometry":{"type":"Point","coordinates":[-92.1060136476727,46.7810053343472]},"properties":{"name":"Superior St & 06 AW - Inc side","altitudeMode":"clampToGround","stop_lat":46.781022,"stop_timez":null,"stop_code":"4-0015","location_t":0,"stop_lon":-92.106029,"FID_route_3_Buffer":1,"parent_sta":null,"stop_url":null,"zone_id":null,"stop_id":"4-0015","FID_GTFS_Stops_02212017":1525,"stop_desc":null,"stop_name":"Superior St & 06 AW - Inc side","wheelchair":0,"Field_1":"Superior St & 06 AW - Inc side"}},{"type":"Feature","geometry":{"type":"Point","coordinates":[-92.1054126482143,46.7813753347963]},"properties":{"name":"Superior St & 06 AW - Lib","altitudeMode":"clampToGround","stop_lat":46.781392,"stop_timez":null,"stop_code":"4-0001","location_t":0,"stop_lon":-92.105428,"FID_route_3_Buffer":1,"parent_sta":null,"stop_url":null,"zone_id":null,"stop_id":"4-0001","FID_GTFS_Stops_02212017":1518,"stop_desc":null,"stop_name":"Superior St & 06 AW - Lib","wheelchair":0,"Field_1":"Superior St & 06 AW - Lib"}},{"type":"Feature","geometry":{"type":"Point","coordinates":[-92.1053206479399,46.7815193340243]},"properties":{"name":"Superior St & 06 AW - Rad","altitudeMode":"clampToGround","stop_lat":46.781536,"stop_timez":null,"stop_code":"4-0002","location_t":0,"stop_lon":-92.105336,"FID_route_3_Buffer":1,"parent_sta":null,"stop_url":null,"zone_id":null,"stop_id":"4-0002","FID_GTFS_Stops_02212017":1519,"stop_desc":null,"stop_name":"Superior St & 06 AW - Rad","wheelchair":0,"Field_1":"Superior St & 06 AW - Rad"}},{"type":"Feature","geometry":{"type":"Point","coordinates":[-92.1041826482614,46.7823663342217]},"properties":{"name":"Superior St & 05 AW","altitudeMode":"clampToGround","stop_lat":46.782383,"stop_timez":null,"stop_code":"Jan-78","location_t":0,"stop_lon":-92.104198,"FID_route_3_Buffer":1,"parent_sta":null,"stop_url":null,"zone_id":null,"stop_id":"Jan-78","FID_GTFS_Stops_02212017":225,"stop_desc":null,"stop_name":"Superior St & 05 AW","wheelchair":0,"Field_1":"Superior St & 05 AW"}},{"type":"Feature","geometry":{"type":"Point","coordinates":[-92.1038296485515,46.7826913338964]},"properties":{"name":"Superior St & 04 AW","altitudeMode":"clampToGround","stop_lat":46.782708,"stop_timez":null,"stop_code":"Feb-83","location_t":0,"stop_lon":-92.103845,"FID_route_3_Buffer":1,"parent_sta":null,"stop_url":null,"zone_id":null,"stop_id":"Feb-83","FID_GTFS_Stops_02212017":926,"stop_desc":null,"stop_name":"Superior St & 04 AW","wheelchair":0,"Field_1":"Superior St & 04 AW"}},{"type":"Feature","geometry":{"type":"Point","coordinates":[-92.1028486488685,46.7834203334883]},"properties":{"name":"Superior St & 04 AW","altitudeMode":"clampToGround","stop_lat":46.783437,"stop_timez":null,"stop_code":"Jan-83","location_t":0,"stop_lon":-92.102864,"FID_route_3_Buffer":1,"parent_sta":null,"stop_url":null,"zone_id":null,"stop_id":"Jan-83","FID_GTFS_Stops_02212017":159,"stop_desc":null,"stop_name":"Superior St & 04 AW","wheelchair":0,"Field_1":"Superior St & 04 AW"}},{"type":"Feature","geometry":{"type":"Point","coordinates":[-92.1006556504192,46.7838773331607]},"properties":{"name":"Duluth Transportation Center West","altitudeMode":"clampToGround","stop_lat":46.783894,"stop_timez":null,"stop_code":"5-0012","location_t":0,"stop_lon":-92.100671,"FID_route_3_Buffer":1,"parent_sta":null,"stop_url":null,"zone_id":null,"stop_id":"5-0012","FID_GTFS_Stops_02212017":1561,"stop_desc":null,"stop_name":"Duluth Transportation Center West","wheelchair":0,"Field_1":"Duluth Transportation Center West"}},{"type":"Feature","geometry":{"type":"Point","coordinates":[-92.1010076497881,46.7840953328685]},"properties":{"name":"Duluth Transportation Center East","altitudeMode":"clampToGround","stop_lat":46.784112,"stop_timez":null,"stop_code":"5-0001","location_t":0,"stop_lon":-92.101023,"FID_route_3_Buffer":1,"parent_sta":null,"stop_url":null,"zone_id":null,"stop_id":"5-0001","FID_GTFS_Stops_02212017":1551,"stop_desc":null,"stop_name":"Duluth Transportation Center East","wheelchair":0,"Field_1":"Duluth Transportation Center East"}},{"type":"Feature","geometry":{"type":"Point","coordinates":[-92.1013976495968,46.7845743331352]},"properties":{"name":"Holiday Transit Center -Building","altitudeMode":"clampToGround","stop_lat":46.784591,"stop_timez":null,"stop_code":"Jan-57","location_t":0,"stop_lon":-92.101413,"FID_route_3_Buffer":1,"parent_sta":null,"stop_url":null,"zone_id":null,"stop_id":"Jan-57","FID_GTFS_Stops_02212017":86,"stop_desc":null,"stop_name":"Holiday Transit Center -Building","wheelchair":0,"Field_1":"Holiday Transit Center -Building"}},{"type":"Feature","geometry":{"type":"Point","coordinates":[-92.1006126503427,46.7851243324615]},"properties":{"name":"Superior St & 02 AW US Bank","altitudeMode":"clampToGround","stop_lat":46.785141,"stop_timez":null,"stop_code":"2-65571","location_t":0,"stop_lon":-92.100628,"FID_route_3_Buffer":1,"parent_sta":null,"stop_url":null,"zone_id":null,"stop_id":"2-65571","FID_GTFS_Stops_02212017":848,"stop_desc":null,"stop_name":"Superior St & 02 AW US Bank","wheelchair":0,"Field_1":"Superior St & 02 AW US Bank"}},{"type":"Feature","geometry":{"type":"Point","coordinates":[-92.1000366502383,46.7856283329904]},"properties":{"name":"Superior St & 01 AW","altitudeMode":"clampToGround","stop_lat":46.785645,"stop_timez":null,"stop_code":"Jan-78","location_t":0,"stop_lon":-92.100052,"FID_route_3_Buffer":1,"parent_sta":null,"stop_url":null,"zone_id":null,"stop_id":"Jan-78","FID_GTFS_Stops_02212017":29,"stop_desc":null,"stop_name":"Superior St & 01 AW","wheelchair":0,"Field_1":"Superior St & 01 AW"}},{"type":"Feature","geometry":{"type":"Point","coordinates":[-92.0991996510061,46.7862233324209]},"properties":{"name":"Superior St & 01 AW","altitudeMode":"clampToGround","stop_lat":46.78624,"stop_timez":null,"stop_code":"Feb-78","location_t":0,"stop_lon":-92.099215,"FID_route_3_Buffer":1,"parent_sta":null,"stop_url":null,"zone_id":null,"stop_id":"Feb-78","FID_GTFS_Stops_02212017":795,"stop_desc":null,"stop_name":"Superior St & 01 AW","wheelchair":0,"Field_1":"Superior St & 01 AW"}},{"type":"Feature","geometry":{"type":"Point","coordinates":[-92.0981146514008,46.7870703316544]},"properties":{"name":"Superior St & Lake Ave","altitudeMode":"clampToGround","stop_lat":46.787087,"stop_timez":null,"stop_code":"Feb-57","location_t":0,"stop_lon":-92.09813,"FID_route_3_Buffer":1,"parent_sta":null,"stop_url":null,"zone_id":null,"stop_id":"Feb-57","FID_GTFS_Stops_02212017":1499,"stop_desc":null,"stop_name":"Superior St & Lake Ave","wheelchair":0,"Field_1":"Superior St & Lake Ave"}},{"type":"Feature","geometry":{"type":"Point","coordinates":[-92.0972516512007,46.7877283318636]},"properties":{"name":"Superior St & 01 AE","altitudeMode":"clampToGround","stop_lat":46.787745,"stop_timez":null,"stop_code":"Jan-77","location_t":0,"stop_lon":-92.097267,"FID_route_3_Buffer":1,"parent_sta":null,"stop_url":null,"zone_id":null,"stop_id":"Jan-77","FID_GTFS_Stops_02212017":28,"stop_desc":null,"stop_name":"Superior St & 01 AE","wheelchair":0,"Field_1":"Superior St & 01 AE"}},{"type":"Feature","geometry":{"type":"Point","coordinates":[-92.0968856513921,46.7879533319]},"properties":{"name":"Superior St & 01 AE","altitudeMode":"clampToGround","stop_lat":46.78797,"stop_timez":null,"stop_code":"Feb-77","location_t":0,"stop_lon":-92.096901,"FID_route_3_Buffer":1,"parent_sta":null,"stop_url":null,"zone_id":null,"stop_id":"Feb-77","FID_GTFS_Stops_02212017":794,"stop_desc":null,"stop_name":"Superior St & 01 AE","wheelchair":0,"Field_1":"Superior St & 01 AE"}},